business_product_id;name;discriminator;street;house_number;postal_code;main_city_name;number_of_units;maximum_capacity;email;phone1;lat;long;nearestFC;distanceFC
211202;' A place to be... ';BED_AND_BREAKFAST;GROOT BEGIJNHOF;91;9040;Gent;1;8;LiliandGene@gmail.com;;51.058015;3.749028;Gent;2.0489229481441766
275861; Bruges Home;GENERIC_ROOMS;SLACHTHUISSTRAAT;1;8000;Brugge;1;4;;;51.219954;3.211232;Poelkapelle;34.88541827867312
345868; Charmante rijwoning;GENERIC_ROOMS;THÉODULE CANFIJNSTRAAT;52;9600;Ronse;1;1;elsy.provence@hotmail.com;0473608936;50.749317;3.60908;Mouscron;28.843284158747558
222862; Martine Haerens;HOLIDAY_COTTAGE;KRUISBULCKSTRAAT;22;9800;Deinze;1;3;martinehaerens@hotmail.com;+32 9 386 75 41;51.01628;3.486942;Gent;18.808812659972528
229896;' t Hemelbedje;BED_AND_BREAKFAST;Leistraat;2;8620;Nieuwpoort;4;10;info@hemelbedje.be;;51.1093425760807;2.76432351224519;Koksijde;9.346315769786592
220079;' T Stil Genot;HOLIDAY_COTTAGE;Sint-Omaarsstraat;1;8691;Alveringem;1;8;t.stil.genot@gmail.com;+32 51 51 09 31;50.920143;2.613962;Koksijde;20.009552905329258
377916; 't Zandmanneke;BED_AND_BREAKFAST;OUDE MOLENSTRAAT;20;8400;Oostende;3;6;info@bbtzandmanneke.com;0486664610;51.222104;2.909582;Koksijde;23.73311355350359
220355; 't Zeetje;BED_AND_BREAKFAST;Kasteelstraat;35;8660;De Panne;5;11;;+32475665382;51.09722355329941;2.592153130122508;Koksijde;2.7883354649385033
382942;"""2600""";HOLIDAY_COTTAGE;Lodewijk van Berckenlaan;134;2600;Antwerpen;1;5;;;51.197379;4.443168;Deurne;1.7963591339060536
383390;"""Casa Nina""";HOLIDAY_COTTAGE;Vrijheidstraat;73;8400;Oostende;1;4;;;51.213696;2.904943;Koksijde;22.93923681888933
378415;"""Chez Ba'Nus""";BED_AND_BREAKFAST;ROGIERLAAN;6;8370;Blankenberge;1;3;info@chezbanus.be;0485544878;51.316364;3.13233;Koksijde;42.48410324732503
222919;"""Juliette's"" Bed and Breakfast";BED_AND_BREAKFAST;MINNEPLEIN;3;8900;Ieper;4;10;juliette.ieper@telenet.be;+32 57 36 67 96;50.852367;2.880195;Poelkapelle;12.156973085874222
297667;"""Nice duplex with own bathroom""";BED_AND_BREAKFAST;ENGELSENLAAN;4;9600;Ronse;1;2;phil@saphico.be;;50.745174;3.591083;Mouscron;27.56373109379902
345906;#WGL;BED_AND_BREAKFAST;LEDEPONTWEG;2;9772;Kruisem;1;1;tom.libbrecht@gmail.com;+32494994052;50.889047;3.577094;Gent;23.5994341639645
384536;*Olena;GENERIC_ROOMS;TABAKVEST;78;2000;Antwerpen;1;2;olena.besjentseva@gmail.com;+32486271730;51.213942;4.410296;Deurne;3.2755288492811725
357489;*Staark;HOLIDAY_COTTAGE;PAUL SMEKENSPLEIN;30;2000;Antwerpen;1;2;info@staark.be;0032475241681;51.2265538305;4.4060627995;Deurne;3.9527935311553333
357488;*Staark;HOLIDAY_COTTAGE;PAUL SMEKENSPLEIN;30;2000;Antwerpen;1;2;info@staark.be;0032475241681;51.2265538305;4.4060627995;Deurne;3.9527935311553333
381012;@ De Heide;GUEST_ROOM;Ommegangsdreef;53;9250;Waasmunster;5;12;geert@allservice.be;0475417872;51.121271;4.100296;Gent;25.867389003163712
212411;@ Home;BED_AND_BREAKFAST;HEILIGE GEESTSTRAAT;3;3290;Diest;1;4;nicole.meelbergs@telenet.be;+32 13 31 22 82;50.987584;5.061785;Zoutleeuw;19.214063140440775
379619;@ Home;GENERIC_ROOMS;Mechelsesteenweg;186;1800;Vilvoorde;1;1;;;50.93477;4.427453;Neder-Over-Heembeek;3.9383599402651113
211765;@ Huize Ewoud;HOLIDAY_COTTAGE;SINT-EWOUDSSTRAAT;17;8200;Brugge;1;7;huizeewoud@gmail.com;;51.20133;3.203689;Poelkapelle;32.820416998635984
379143;@ Koppenberg;HOLIDAY_COTTAGE;Berchemweg;14;9700;Oudenaarde;1;5;carine_audooren@hotmail.com;+32 476 76 81 52;50.832009;3.599233;Gent;28.76229407683128
224697;@ Lighthouse B&B;BED_AND_BREAKFAST;KAAI;46;8620;Nieuwpoort;2;5;info@light-house.be;+32 58 23 73 52;51.133197;2.746827;Koksijde;8.878658290923466
380086;@ the Artist Gallery / Studio;BED_AND_BREAKFAST;OEDENKOVENSTRAAT;54;2140;Antwerpen;1;2;;;51.213531;4.431961;Deurne;1.7677521111781451
226892;@Cocoon;BED_AND_BREAKFAST;SINT-NIKLAASSTRAAT;9;8900;Ieper;3;6;info@cocoon-bedandbreakfast.be;+32 57 48 67 04;50.850839;2.88074;Poelkapelle;12.281358764226892
345956;@CoucheCouche;BED_AND_BREAKFAST;LAAR;30;2140;Antwerpen;2;6;bb.couchecouche@gmail.com;0496643417;51.216828;4.434336;Deurne;1.7067712111143658
324803;@Marieke;GENERIC_ROOMS;Landjuweelstraat;51;9050;Gent;1;3;marieke.janssen123@gmail.com;0474683253;51.03846857368365;3.740843078349152;Gent;4.085721019687673
383798;‘t Goed ter Fintele;HOLIDAY_COTTAGE;FINTELE;11;8647;Lo-Reninge;1;20;info@tgoedterfintele.be;0477610777;50.958042;2.738862;Poelkapelle;16.440719737123516
379181;‘t Hooghe Huys;HOLIDAY_COTTAGE;BREDERODESTRAAT;184B;2018;Antwerpen;1;2;bert-v.r@hotmail.com;+32497656609;51.20065;4.391122;Deurne;4.7420228720824005
379180;‘t Hooghe Huys;HOLIDAY_COTTAGE;BREDERODESTRAAT;184A;2018;Antwerpen;1;2;bert-v.r@hotmail.com;+32497656609;51.20065;4.391122;Deurne;4.7420228720824005
379179;‘t Hooghe Huys;HOLIDAY_COTTAGE;BREDERODESTRAAT;184;2018;Antwerpen;1;2;bert-v.r@hotmail.com;+32497656609;51.200715;4.391174;Deurne;4.736740570943677
382018;‘t Scheef Huisje;GENERIC_ROOMS;INFIRMERIEPLEIN;15;2018;Antwerpen;1;2;christian.hillemans@skynet.be;0032475807438;51.2018907952;4.4260400588;Deurne;2.3859856197983462
211128;+++blancoooKAMIL+++;HOLIDAY_COTTAGE;Provinciestraat;197;2018;Antwerpen;1;6;annemie@blancooo.be;+32 486 38 69 25;51.21162727985417;4.426381490349351;Deurne;2.1364244510249204
379758;0601;HOLIDAY_COTTAGE;ZEEDIJK;39;8660;De Panne;1;6;;;51.102233;2.587165;Koksijde;3.137556001798074
379995;0601 (3600);HOLIDAY_COTTAGE;ZEEDIJK;134;8660;De Panne;1;6;;;51.106273;2.59767;Koksijde;2.499382419259031
251065;1;BED_AND_BREAKFAST;VELDBRUGSTRAAT;64;9060;Zelzate;2;3;dhaeze_els@hotmail.com;;51.194091;3.799377;Gent;13.90337642725618
211456;1 2 Stay (Want To Stay);BED_AND_BREAKFAST;Noordveenakkerstraat;66;9000;Gent;1;2;lodge@12stay.be;+32 478 34 93 34;51.0736007002955;3.74539881569624;Gent;0.5232336725792365
212029;1 2 trios ... Le Roi;BED_AND_BREAKFAST;EENDRACHTSTRAAT;82;9000;Gent;1;3;info@123leroi.be;+32 9 346 83 08;51.048559;3.743096;Gent;2.978044824149102
299370;1000 Vuren;HOLIDAY_COTTAGE;NOORDSTRAAT;1;9000;Gent;1;2;nina@telenet.be;;51.056823;3.709486;Gent;2.8735685224417917
211334;13 O'Clock Hostel Ghent;HOSTEL;UNIVERSITEITSTRAAT;13;9000;Gent;115;115;info@13oclock.be;;51.050918;3.723378;Gent;2.8941905777734154
219003;15 Inn;BED_AND_BREAKFAST;GESTELSEWEG;15;2491;Balen;4;9;info@15inn.be;+32 14 82 05 46;51.119379;5.127901;Lommel;21.992924693601132
297730;1570;BED_AND_BREAKFAST;ZEUNINGENSTRAAT;8;1570;Galmaarden;2;8;maya.hanssens@gmail.com;;50.742156;3.995092;Sint-Pieters-Woluwe;30.56627550050333
357585;17th century attic rooms;GENERIC_ROOMS;Ganzenstraat;51;8000;Brugge;1;4;;;51.208299;3.235767;Poelkapelle;34.64172872716855
275877;1820;BED_AND_BREAKFAST;Sint-Jansvest;20;9000;Gent;1;2;lievengoossens@telenet.be;+32 485 57 65 46;51.0497589431387;3.72709027675199;Gent;2.9342351516774317
324846;1898 The Post;HOTEL;GRASLEI;16;9000;Gent;38;82;reservations@1898thepost.com;+3292770960;;;Herbeumont;5540.271330169284
220258;1JB JONCKERSHOF 233;HOLIDAY_COTTAGE;DUINENWEG;539;8430;Middelkerke;1;4;info@jonckershof.be;+32 59 30 18 73;51.171095;2.782653;Koksijde;13.217226992476105
382221;2 floors 12 single beds close to shopping centre;GENERIC_ROOMS;SINT-THOMASSTRAAT;39;2018;Antwerpen;4;12;robert@symcorp.be;032327383;51.204496;4.412814;Deurne;3.167718405615392
367844;2 Sides;BED_AND_BREAKFAST;Kerkstraat;9;8400;Oostende;5;12;tea1975@msn.com;+32485191029;51.23142;2.919017;Koksijde;24.871279806208147
228393;2000 0203;HOLIDAY_COTTAGE;Zeedijk;240;8430;Middelkerke;1;4;isabelle.sanders@telenet.be;+32 50 81 13 21;51.18214897273906;2.801720950285387;Koksijde;15.023043490736717
223493;2000 10336 MIDDELKERKE;HOLIDAY_COTTAGE;ZEEDIJK;240;8430;Middelkerke;1;4;info@agem.be;+32 59 30 17 79;51.18235;2.801427;Koksijde;15.020428884913137
223494;2000 10666 MIDDELKERKE;HOLIDAY_COTTAGE;Zeedijk;240;8430;Middelkerke;1;4;info@agem.be;+32 59 30 17 79;51.18214897273906;2.801720950285387;Koksijde;15.023043490736717
223495;2000 10775 MIDDELKERKE;HOLIDAY_COTTAGE;ZEEDIJK;240;8430;Middelkerke;1;6;info@agem.be;+32 59 30 17 79;51.18235;2.801427;Koksijde;15.020428884913137
223496;2000 20302 MIDDELKERKE;HOLIDAY_COTTAGE;ZEEDIJK;240;8430;Middelkerke;1;6;info@agem.be;+32 59 30 17 79;51.18235;2.801427;Koksijde;15.020428884913137
223497;2000 30551 MIDDELKERKE;HOLIDAY_COTTAGE;ZEEDIJK;240;8430;Middelkerke;1;7;info@agem.be;+32 59 30 17 79;51.18235;2.801427;Koksijde;15.020428884913137
223498;2000 S0114 MIDDELKERKE;HOLIDAY_COTTAGE;Zeedijk;240;8430;Middelkerke;1;4;info@agem.be;+32 59 30 17 79;51.18214897273906;2.801720950285387;Koksijde;15.023043490736717
223499;2000 S0552 MIDDELKERKE;HOLIDAY_COTTAGE;ZEEDIJK;240;8430;Middelkerke;1;4;info@agem.be;+32 59 30 17 79;51.18235;2.801427;Koksijde;15.020428884913137
223500;2000 S0662 MIDDELKERKE;HOLIDAY_COTTAGE;ZEEDIJK;240;8430;Middelkerke;1;4;info@agem.be;+32 59 30 17 79;51.18235;2.801427;Koksijde;15.020428884913137
223501;2000 S0906;HOLIDAY_COTTAGE;ZEEDIJK;240;8430;Middelkerke;1;4;info@agem.be;+32 59 30 17 79;51.18235;2.801427;Koksijde;15.020428884913137
299096;2060;HOLIDAY_COTTAGE;Wetstraat;38;2060;Antwerpen;1;4;;;51.2203597782208;4.4282692520042;Deurne;2.2570581523580584
379578;22b&b;BED_AND_BREAKFAST;SINT-VINCENTIUSSTRAAT;22;2018;Antwerpen;4;12;info@22bnb.be;+32475674930;51.204993;4.413582;Deurne;3.103079883815435
383721;24 Geuzenstraat;HOLIDAY_COTTAGE;Geuzenstraat;24;8400;Oostende;1;3;;;;;Herbeumont;5540.271330169284
379568;26A kwadraat;HOLIDAY_COTTAGE;SUIKERSTRAAT;26A;9260;Wichelen;1;5;wouter@chismoor.net;;50.993464;3.949266;Gent;17.363194411649847
299708;2AM AMOGIS 303;HOLIDAY_COTTAGE;DUINENWEG;523;8430;Middelkerke;1;4;;;51.172114;2.784834;Koksijde;13.407274247039023
222563;2AM AMOGIS 304;HOLIDAY_COTTAGE;Duinenweg;523;8430;Middelkerke;1;4;info@jonckershof.be;+32 59 30 18 73;51.17111325424929;2.7828677608269;Koksijde;13.230459138879857
222564;2AM AMOGIS 305;HOLIDAY_COTTAGE;Duinenweg;523;8430;Middelkerke;1;4;info@jonckershof.be;+32 59 30 18 73;51.17111325424929;2.7828677608269;Koksijde;13.230459138879857
222565;2AM AMOGIS 306;HOLIDAY_COTTAGE;Duinenweg;523;8430;Middelkerke;1;4;info@jonckershof.be;+32 59 30 18 73;51.17111325424929;2.7828677608269;Koksijde;13.230459138879857
222566;2AM AMOGIS 307;HOLIDAY_COTTAGE;Duinenweg;523;8430;Middelkerke;1;4;info@jonckershof.be;+32 59 30 18 73;51.17111325424929;2.7828677608269;Koksijde;13.230459138879857
222567;2AM AMOGIS 308;HOLIDAY_COTTAGE;Duinenweg;523;8430;Middelkerke;1;4;info@jonckershof.be;+32 59 30 18 73;51.17111325424929;2.7828677608269;Koksijde;13.230459138879857
222568;2AM AMOGIS 309;HOLIDAY_COTTAGE;Duinenweg;523;8430;Middelkerke;1;4;info@jonckershof.be;+32 59 30 18 73;51.17111325424929;2.7828677608269;Koksijde;13.230459138879857
222558;2AM AMOGIS 310;HOLIDAY_COTTAGE;Duinenweg;523;8430;Middelkerke;1;4;info@jonckershof.be;+32 59 30 18 73;51.17111325424929;2.7828677608269;Koksijde;13.230459138879857
222559;2AM AMOGIS 311;HOLIDAY_COTTAGE;Duinenweg;523;8430;Middelkerke;1;4;info@jonckershof.be;+32 59 30 18 73;51.17111325424929;2.7828677608269;Koksijde;13.230459138879857
299726;2AM+ 361;HOLIDAY_COTTAGE;DUINENWEG;523;8430;Middelkerke;1;5;;;51.172114;2.784834;Koksijde;13.407274247039023
299712;2AM+ 362;HOLIDAY_COTTAGE;DUINENWEG;523;8430;Middelkerke;1;5;;;51.172114;2.784834;Koksijde;13.407274247039023
299739;2AM+ 365;HOLIDAY_COTTAGE;DUINENWEG;523;8430;Middelkerke;1;5;;;51.172114;2.784834;Koksijde;13.407274247039023
299727;2AM+ 366;HOLIDAY_COTTAGE;DUINENWEG;523;8430;Middelkerke;1;5;;;51.172114;2.784834;Koksijde;13.407274247039023
299703;2AM+ 367;HOLIDAY_COTTAGE;DUINENWEG;523;8430;Middelkerke;1;5;;;51.172114;2.784834;Koksijde;13.407274247039023
222550;2AM+ 368;HOLIDAY_COTTAGE;Duinenweg;523;8430;Middelkerke;1;5;info@jonckershof.be;+32 59 30 18 73;51.17111325424929;2.7828677608269;Koksijde;13.230459138879857
299718;2AM+ 369;HOLIDAY_COTTAGE;DUINENWEG;523;8430;Middelkerke;1;5;;;51.172114;2.784834;Koksijde;13.407274247039023
380310;2B @ SEA;HOLIDAY_COTTAGE;Ter Cuereplein;10;8450;Bredene;1;8;info@2b-at-sea.be;;51.237075;2.959179;Koksijde;27.53426163741454
346112;2-room set;GENERIC_ROOMS;ADRIAANSTRAAT;68;3090;Overijse;2;4;patricia.s@email.cz;+32472762246;50.767672;4.549776;Overijse;3.000437122047872
299717;2SI SIGOMA 402;HOLIDAY_COTTAGE;DUINENWEG;541;8430;Middelkerke;1;4;;;51.170471;2.781295;Koksijde;13.099592988958022
299734;2SI SIGOMA 406;HOLIDAY_COTTAGE;DUINENWEG;541;8430;Middelkerke;1;4;;;51.170471;2.781295;Koksijde;13.099592988958022
299710;2SI SIGOMA 410;HOLIDAY_COTTAGE;DUINENWEG;541;8430;Middelkerke;1;4;;;51.170471;2.781295;Koksijde;13.099592988958022
299711;2SI SIGOMA 412;HOLIDAY_COTTAGE;DUINENWEG;541;8430;Middelkerke;1;4;;;51.170471;2.781295;Koksijde;13.099592988958022
299722;2SI SIGOMA 414;HOLIDAY_COTTAGE;DUINENWEG;541;8430;Middelkerke;1;4;;;51.170471;2.781295;Koksijde;13.099592988958022
299723;2SI SIGOMA 431;HOLIDAY_COTTAGE;DUINENWEG;541;8430;Middelkerke;1;4;;;51.170471;2.781295;Koksijde;13.099592988958022
299724;2SI SIGOMA 433;HOLIDAY_COTTAGE;DUINENWEG;541;8430;Middelkerke;1;4;;;51.170471;2.781295;Koksijde;13.099592988958022
299695;2SI SIGOMA 436;HOLIDAY_COTTAGE;DUINENWEG;541;8430;Middelkerke;1;4;;;51.170471;2.781295;Koksijde;13.099592988958022
299730;2SI SIGOMA 437;HOLIDAY_COTTAGE;DUINENWEG;541;8430;Middelkerke;1;4;;;51.170471;2.781295;Koksijde;13.099592988958022
299744;2SI SIGOMA 438;HOLIDAY_COTTAGE;DUINENWEG;541;8430;Middelkerke;1;4;;;51.170471;2.781295;Koksijde;13.099592988958022
299731;2SI SIGOMA 441;HOLIDAY_COTTAGE;DUINENWEG;541;8430;Middelkerke;1;4;;;51.170471;2.781295;Koksijde;13.099592988958022
299704;2SI SIGOMA 442;HOLIDAY_COTTAGE;DUINENWEG;541;8430;Middelkerke;1;4;;;51.170471;2.781295;Koksijde;13.099592988958022
299700;2SI SIGOMA 443;HOLIDAY_COTTAGE;DUINENWEG;541;8430;Middelkerke;1;4;;;51.170471;2.781295;Koksijde;13.099592988958022
299701;2SI SIGOMA 446;HOLIDAY_COTTAGE;DUINENWEG;541;8430;Middelkerke;1;4;;;51.170471;2.781295;Koksijde;13.099592988958022
299725;2SI SIGOMA 447;HOLIDAY_COTTAGE;DUINENWEG;541;8430;Middelkerke;1;4;;;51.170471;2.781295;Koksijde;13.099592988958022
299715;2SI SIGOMA 448;HOLIDAY_COTTAGE;DUINENWEG;541;8430;Middelkerke;1;4;;;51.170471;2.781295;Koksijde;13.099592988958022
299702;2SI SIGOMA 452;HOLIDAY_COTTAGE;DUINENWEG;541;8430;Middelkerke;1;4;;;51.170471;2.781295;Koksijde;13.099592988958022
219624;2sprong;BED_AND_BREAKFAST;MENENSTRAAT;45;8560;Wevelgem;3;6;info@2sprong.be;+32 56 41 63 01;50.807311;3.177126;Mouscron;7.534418634463323
212228;3 kings;HOLIDAY_COTTAGE;Driekoningenweg;17a;8310;Brugge;1;6;info@3-kings.be;+32478433189;51.211748630237;3.24330253926104;Poelkapelle;35.248601595219995
211185;3 Paardekens;HOTEL;BEGIJNENSTRAAT;3;2800;Mechelen;33;60;info@3paardekens.be;+32 15 34 27 13;51.028104;4.478044;Steenokkerzeel;13.001741428847154
301169;3 Zeesteden;HOLIDAY_COTTAGE;ALBERT I LAAN;;8620;Nieuwpoort;1;4;;;51.149582;2.718864;Koksijde;8.247947503038285
224238;31.020;HOLIDAY_COTTAGE;Bredeweg;80;8420;De Haan;1;6;info@zeeparken.be;;51.26384828433939;3.038989562550926;Koksijde;33.829523531962565
228229;31.157;HOLIDAY_COTTAGE;Bredeweg;80 b;8420;De Haan;1;4;info@zeeparken.be;+32 59 23 58 54;51.26128379613887;3.038750794089935;Koksijde;33.662877482005825
299681;39.009;HOLIDAY_COTTAGE;BREDEWEG;80;8420;De Haan;1;2;;;51.262854;3.037924;Koksijde;33.70738182586784
276951;3C Apartments;GENERIC_ROOMS;VLAANDERENSTRAAT;17;9000;Gent;1;6;ivo.v.manolov@gmail.com;+32 479 25 99 17;51.050979;3.72929;Gent;2.76427534632662
276950;3C Apartments;GENERIC_ROOMS;VLAANDERENSTRAAT;15;9000;Gent;1;6;ivo.v.manolov@gmail.com;+32 479 25 99 17;51.050979;3.72929;Gent;2.76427534632662
226318;3CBrussels;CAMPING;WARANDEBERG;52;1970;Wezembeek-Oppem;67;262;yvandhondt@hotmail.com;+32 2 782 10 09;50.857102;4.485103;Zaventem;3.523026381731705
299737;3SI SIGOMA 401;HOLIDAY_COTTAGE;DUINENWEG;541;8430;Middelkerke;1;6;;;51.170471;2.781295;Koksijde;13.099592988958022
299733;3SI SIGOMA 405;HOLIDAY_COTTAGE;DUINENWEG;541;8430;Middelkerke;1;6;;;51.170471;2.781295;Koksijde;13.099592988958022
299698;3SI SIGOMA 409;HOLIDAY_COTTAGE;DUINENWEG;541;8430;Middelkerke;1;6;;;51.170471;2.781295;Koksijde;13.099592988958022
299729;3SI SIGOMA 413;HOLIDAY_COTTAGE;DUINENWEG;541;8430;Middelkerke;1;6;;;51.170471;2.781295;Koksijde;13.099592988958022
299714;3SI SIGOMA 430;HOLIDAY_COTTAGE;DUINENWEG;541;8430;Middelkerke;1;6;;;51.170471;2.781295;Koksijde;13.099592988958022
299721;3SI SIGOMA 432;HOLIDAY_COTTAGE;DUINENWEG;541;8430;Middelkerke;1;6;;;51.170471;2.781295;Koksijde;13.099592988958022
302010;3SI SIGOMA 439;HOLIDAY_COTTAGE;Duinenweg;541_482;8430;Middelkerke;1;6;;;51.1695995868735;2.78000069371819;Koksijde;12.969008477769139
299709;3SI SIGOMA 451;HOLIDAY_COTTAGE;DUINENWEG;541;8430;Middelkerke;1;6;;;51.170471;2.781295;Koksijde;13.099592988958022
224775;4 WINDEN 4-WIND;HOLIDAY_COTTAGE;Graszodenlaan;3;8670;Koksijde;1;5;agencenotredame@skynet.be;+32 58 51 15 78;51.10657839177572;2.624314807331992;Koksijde;0.9305433518762414
213451;43B;HOLIDAY_COTTAGE;ZEEDIJK;157;8370;Blankenberge;1;4;lea.persoons@skynet.be;;51.317209;3.132422;Koksijde;42.54254655909249
230440;4Arms;BED_AND_BREAKFAST;BARON ALBERT D'HUARTLAAN;295;1950;Kraainem;2;6;anne@couplet.be;+32 485 56 34 39;50.825741;4.474494;Sint-Pieters-Woluwe;4.6848919880922235
277153;4B B&B Brugge;BED_AND_BREAKFAST;GENTHOF;26;8000;Brugge;2;4;eballieu@gazeta.pl;+32 50 34 74 45;51.212695;3.227175;Poelkapelle;34.74197153777969
211754;4-Sight;HOLIDAY_COTTAGE;Simon Stevinplein;17-18;8000;Brugge;1;12;;+32 50 34 66 66;51.2064210014491;3.22233589354866;Poelkapelle;33.969687499431444
261604;4windenhof;HOLIDAY_COTTAGE;GILDESTRAAT;4;8958;Heuvelland;1;20;info@4windenhof.be;+04 72 43 37 68;50.781221;2.766333;Poelkapelle;23.267533026053304
251106;4windenhof;HOLIDAY_COTTAGE;GILDESTRAAT;4;8958;Heuvelland;1;12;info@4windenhof.be;+04 72 43 37 68;50.781221;2.766333;Poelkapelle;23.267533026053304
379768;501;HOLIDAY_COTTAGE;ZEEDIJK;122;8660;De Panne;1;6;;;51.106117;2.597269;Koksijde;2.52123763824417
213465;51.027;HOLIDAY_COTTAGE;Blankenbergsesteenweg;3;8420;De Haan;1;4;fabiolabeachpark@zeeparken.be;+32 50 41 27 75;51.30733070431594;3.102497143221616;Koksijde;40.201409559816
381839;60's chique & bright;GENERIC_ROOMS;Vlaanderenstraat;113;9000;Gent;;;;;;;Herbeumont;5540.271330169284
381838;60's chique & warm;GENERIC_ROOMS;Vlaanderenstraat;115;9000;Gent;1;3;;;;;Herbeumont;5540.271330169284
381998;7G 0203;HOLIDAY_COTTAGE;WESTENDELAAN;100;8430;Middelkerke;1;2;;;51.176175;2.80255;Koksijde;14.674350876402992
213422;81.014;HOLIDAY_COTTAGE;WULPJESWEG;3;8420;De Haan;1;4;haerendycke@zeeparken.be;+32 50 41 27 75;51.309337;3.107668;Koksijde;40.624849661787785
379769;8A;HOLIDAY_COTTAGE;WALCKIERSTRAAT;5;8660;De Panne;1;6;;;51.103612;2.591838;Koksijde;2.831484350188246
381945;9 single bed loft by river, marina and MAS museum;GENERIC_ROOMS;NASSAUSTRAAT;14;2000;Antwerpen;1;12;robert@symcorp.be;032327383;51.230631;4.405277;Deurne;4.217941851571441
212022;A Bed Affair;BED_AND_BREAKFAST;KARRENSTRAAT;5;9000;Gent;1;2;andetavernier@gmail.com;;51.04912;3.716573;Gent;3.2748661012500246
384982;A Bien Venue;HOLIDAY_COTTAGE;Albatrosstraat;8;8301;Knokke-Heist;1;4;info@abienvenue.be;0032486656671;;;Herbeumont;5540.271330169284
275122;A capella;HOLIDAY_COTTAGE;Paul de Smet de Naeyerstraat;32;8430;Middelkerke;1;2;sandra.dekerpel@telenet.be;+32 9 366 52 31;51.188391914635;2.8182336643371;Koksijde;16.36230815369658
276449;A Casa;BED_AND_BREAKFAST;Marktstraat;19;8620;Nieuwpoort;4;8;info@ristorantedaclaudio.be;;51.131398;2.752159;Koksijde;9.139747349262855
380854;A Flemish Tale;GENERIC_ROOMS;VOLDERSSTRAAT;13;9000;Gent;4;8;;;51.052211;3.722636;Gent;2.7808326975273583
221403;A Gen Bron;HOLIDAY_COTTAGE;SINNICH;27;3793;Voeren;1;10;timsieben@hotmail.com;+3243810948;50.74716;5.882971;Theux;23.52767290198497
381311;A House in Mechelen;GENERIC_ROOMS;DONKERLEI;69;2800;Mechelen;2;4;panxm@msn.com;0488969220;51.036818;4.478079;Steenokkerzeel;13.954811838357074
211356;A la bonne heure;BED_AND_BREAKFAST;AJUINMARKTSTRAAT;22;9050;Gent;2;4;info@alabonneheure.eu;;51.038915;3.744205;Gent;4.05313297532311
240669;A La Ferme;HOLIDAY_COTTAGE;Zeelaan;112-114;8660;De Panne;1;4;willem@dunimmo.be;+3258411208;51.0999651960617;2.592609276067628;Koksijde;2.743362247123116
381726;A LA FERME 0603 FERME 0603;HOLIDAY_COTTAGE;ZEELAAN;112-114;8660;De Panne;1;4;;;51.099985;2.592234;Koksijde;2.7696748404721516
384697;A LA FERME FERM0705;HOLIDAY_COTTAGE;ZEELAAN;112-114;8660;De Panne;1;4;;;51.099985;2.592234;Koksijde;2.7696748404721516
223601;à la Maison;HOLIDAY_COTTAGE;SINT-MARTINUSSTRAAT;22;3870;Heers;1;18;christine.brone@gmail.com;+32 495 93 62 53;50.760497;5.375168;Sint-Truiden;14.966447629270316
261585;A L'AmuZette;BED_AND_BREAKFAST;KROMMEWAL;2;9000;Gent;1;4;alamuzette@gmail.com;+32 9 398 29 80;51.059224;3.726558;Gent;1.9563597996142104
380497;A nice Mansion with Garden in Center of Belgium;GENERIC_ROOMS;HENDRIK SPEECQVEST;46;2800;Mechelen;1;6;lucdecloedt@telenet.be;;51.021052;4.485029;Steenokkerzeel;12.14403796294589
381378;A painter's home in Ghent;GENERIC_ROOMS;PROSPER VAN LANGENDONCKSTRAAT;61;9050;Gent;1;2;sophie.depoortere@hotmail.com;0477179151;51.024764;3.758888;Gent;5.788527334504673
275145;A Passage to the world;BED_AND_BREAKFAST;HEIDESTRAAT;53;3080;Tervuren;1;2;ursula.quadpeerds@gmail.com;+32 476 84 54 89;50.813255;4.54646;Overijse;6.15396407918115
382945;A place to be happy and free;GENERIC_ROOMS;Blancefloerlaan;371;2050;Antwerpen;1;4;daniel-jgm@hotmail.com;0489 12 73 68;51.2198455093;4.3630182711;Deurne;6.635628488837449
227730;A Room;BED_AND_BREAKFAST;SINT-TRUIDERSTEENWEG;119;3500;Hasselt;1;1;;;50.922913;5.331941;Sint-Truiden;16.975936937532182
212145;A room with a view;BED_AND_BREAKFAST;HUGO VERRIESTSTRAAT;10;8000;Brugge;3;10;info@aroomwithaview.be;+32 50 33 47 36;51.213823;3.235237;Poelkapelle;35.14284027852547
382096;A Secret Garden;HOLIDAY_COTTAGE;Boterbloemstraat;12;8820;Torhout;1;3;;;51.0853894986;3.1349015195;Poelkapelle;19.35979677867737
357826;A spacious holiday home in Bruges;HOLIDAY_COTTAGE;TORHOUTSE STEENWEG;32;8200;Brugge;1;6;tripelbbruges@gmail.com;0485505101;51.202875;3.207427;Poelkapelle;33.0996110971911
276451;A&D;BED_AND_BREAKFAST;KORTEMARKSTRAAT;68;2600;Antwerpen;1;2;dominika.ras@gmail.com;;51.192679;4.44428;Deurne;2.2232897656307107
240724;A1P;HOLIDAY_COTTAGE;Duinenweg;539_38;8430;Middelkerke;1;2;info@jonckershof.be;;51.1713292160785;2.78330537822063;Koksijde;13.26936008389838
299740;A1P2 JONCKERSHOF 065;HOLIDAY_COTTAGE;DUINENWEG;539;8430;Middelkerke;1;2;;;51.171095;2.782653;Koksijde;13.217226992476105
299735;A2 119;HOLIDAY_COTTAGE;DUINENWEG;539;8430;Middelkerke;1;4;;;51.171095;2.782653;Koksijde;13.217226992476105
212320;a3sHome;HOLIDAY_COTTAGE;KRUISHOUTEMSESTEENWEG;37;9750;Kruisem;1;6;heyerick.a@telenet.be;+32 9 384 60 59;50.906703;3.64934;Gent;19.755311621556718
251047;a3sHome noord;HOLIDAY_COTTAGE;KRUISHOUTEMSESTEENWEG;37;9750;Kruisem;1;4;heyerick.a@telenet.be;+32 9 384 60 59;50.906703;3.64934;Gent;19.755311621556718
379011;AAA Antwerp 1 Shopping Meir;GENERIC_ROOMS;HUIDEVETTERSSTRAAT;40;2000;Antwerpen;1;4;chrisje.stultiens@gmail.com;+32496266023;51.216747;4.405476;Deurne;3.6521244330198113
379012;AAA Antwerp Art Deco;GENERIC_ROOMS;Britselei;27;2000;Antwerpen;1;2;chrisje.stultiens@gmail.com;+32496266023;51.209834;4.406117;Deurne;3.55386664809896
379010;AAA Antwerp Historic Centre;GENERIC_ROOMS;Reyndersstraat;39;2000;Antwerpen;1;4;chrisje.stultiens@gmail.com;+32496266023;51.219029;4.399615;Deurne;4.1034950165049375
380457;AAA ANTWERPEN HV38;GENERIC_ROOMS;HUIDEVETTERSSTRAAT;38;2000;Antwerpen;1;4;DIRK.OEYEN@TELENET.BE;+32477516571;51.217421;4.405388;Deurne;3.671972520247886
224479;AALDUIKER 04;HOLIDAY_COTTAGE;Victorlaan;1;8620;Nieuwpoort;1;6;servimo@era.be;+32 58 22 31 11;51.14170946310073;2.728317228774081;Koksijde;8.220874394245156
224484;Aalduiker 11;HOLIDAY_COTTAGE;VICTORLAAN;1;8620;Nieuwpoort;1;4;servimo@era.be;+32 58 22 31 11;51.14071;2.729386;Koksijde;8.220279210719275
383194;Aalduiker 17;HOLIDAY_COTTAGE;VICTORLAAN;1;8620;Nieuwpoort;1;8;;;51.14071;2.729386;Koksijde;8.220279210719275
224485;Aalduiker 19;HOLIDAY_COTTAGE;Victorlaan;1;8620;Nieuwpoort;1;4;servimo@era.be;+32 58 22 31 11;51.14170946310073;2.728317228774081;Koksijde;8.220874394245156
303034;Aalduiker 5;HOLIDAY_COTTAGE;VICTORLAAN;1;8620;Nieuwpoort;1;10;;;51.14071;2.729386;Koksijde;8.220279210719275
223670;AALSCHOLVER 03;HOLIDAY_COTTAGE;Victorlaan;1;8620;Nieuwpoort;1;4;servimo@era.be;+32 58 22 31 11;51.14170946310073;2.728317228774081;Koksijde;8.220874394245156
345811;Aalscholver 10;HOLIDAY_COTTAGE;VICTORLAAN;1;8620;Nieuwpoort;1;7;;;51.14071;2.729386;Koksijde;8.220279210719275
383196;aalscholver 24;HOLIDAY_COTTAGE;VICTORLAAN;1;8620;Nieuwpoort;1;8;;;51.14071;2.729386;Koksijde;8.220279210719275
261520;Aalscholver A 0202;HOLIDAY_COTTAGE;Franslaan;16;8620;Nieuwpoort;1;6;Virginie.Bonte@immogroup-s.be;;51.14951602232306;2.721107220776418;Koksijde;8.359844966972016
261519;Aalscholver A 0202 AALSCH 05;HOLIDAY_COTTAGE;FRANSLAAN;16;8620;Nieuwpoort;1;4;Virginie.Bonte@immogroup-s.be;;51.149643;2.721109;Koksijde;8.369311645720495
275246;Aalscholver B 01.01 1949;HOLIDAY_COTTAGE;FRANSLAAN;18;8620;Nieuwpoort;1;4;an@euroimmo.be;;51.149518;2.720819;Koksijde;8.34490559842942
261391;Aalscholver B 0103 1995;HOLIDAY_COTTAGE;Franslaan;18;8620;Nieuwpoort;1;4;an@euroimmo.be;;51.14947803686005;2.721019297843782;Koksijde;8.352437719848199
261582;Aalscholver B 0601 AALSCH B 06;HOLIDAY_COTTAGE;FRANSLAAN;18;8620;Nieuwpoort;1;6;Virginie.Bonte@immogroup-s.be;;51.149518;2.720819;Koksijde;8.34490559842942
335537;Aalscholver C 0202;HOLIDAY_COTTAGE;ELISALAAN;19;8620;Nieuwpoort;1;4;;;51.14903;2.721879;Koksijde;8.364764256335821
261643;Aalscholver C 0401 AALSCHOLVER;HOLIDAY_COTTAGE;ELISALAAN;15;8620;Nieuwpoort;1;4;Virginie.Bonte@immogroup-s.be;;51.149149;2.722186;Koksijde;8.389662236295848
303218;Aalscholverstraat HUIS;HOLIDAY_COTTAGE;AALSCHOLVERSTRAAT;94;8450;Bredene;1;5;;;51.235518;2.952987;Koksijde;27.07837416024972
214788;Aalschover;HOLIDAY_COTTAGE;Hoveniersstraat;27;8434;Middelkerke;1;7;fleurdive@yahoo.com;;51.15710412795827;2.761873742490092;Koksijde;11.126441848920717
301380;Aalschover 0302;HOLIDAY_COTTAGE;Victorlaan;1;8620;Nieuwpoort;1;4;;;;;Herbeumont;5540.271330169284
301382;Aalschover 22;HOLIDAY_COTTAGE;VICTORLAAN;1;8620;Nieuwpoort;1;6;;;51.14071;2.729386;Koksijde;8.220279210719275
214847;AALSCHOVER D 20503;HOLIDAY_COTTAGE;ELISALAAN;17;8620;Nieuwpoort;1;6;info@agem.be;+32 59 30 17 79;51.14911;2.722063;Koksijde;8.380319902688818
298960;Aalsters Genot;BED_AND_BREAKFAST;ONEGEM;100;9300;Aalst;4;10;contact@aalsters-genot.be;;50.954874;4.010239;Gent;23.304365748583656
219094;Aan de Boskapel;HOLIDAY_COTTAGE;ZAGERIJSTRAAT;35;2275;Lille;1;10;info@zagerijstraat.be;+32474576026;51.232845;4.820883;Broechem;17.995463760341323
211637;Aan de Coupure;BED_AND_BREAKFAST;COUPURE;22;8000;Brugge;3;6;bruges@bedandbreakfastcoupure.be;+3250731599;51.207561;3.233935;Poelkapelle;34.50390553689754
226647;Aan De Dreef;HOLIDAY_COTTAGE;Genootstraat;21;3630;Maasmechelen;1;12;Philippe@jemar.be;+32 89 77 23 20;50.9972537756615;5.74463539793684;Lommel;37.548111525938815
287334;Aan de Jordaan;GUEST_ROOM;DOORNSTRAAT;31;3370;Boutersem;4;10;erik@tapovan.be;+32 475 78 34 50;50.803541;4.834794;Jodoigne;10.904715763258903
287357;Aan de Jordaan;HOLIDAY_COTTAGE;DOORNSTRAAT;31;3370;Boutersem;1;16;erik@tapovan.be;+32 475 78 34 50;50.803541;4.834794;Jodoigne;10.904715763258903
223746;Aan De Leie;BED_AND_BREAKFAST;WAKKENSE HEIRWEG;26;9800;Deinze;2;4;info@aandeleie.be;;50.989624;3.506667;Gent;18.833526001737997
227081;Aan de Lombaardhof;BED_AND_BREAKFAST;LOMBAARDSTRAAT;42;3500;Hasselt;1;2;info@lombaardhof.com;+32 11 22 96 79;50.93096;5.334755;Sint-Truiden;17.790979799504203
211872;Aan de vaart;HOLIDAY_COTTAGE;AUWEGEMVAART;76;2800;Mechelen;1;4;aandevaart@hotmail.com;+32 15 26 05 07;51.027639;4.462852;Steenokkerzeel;13.192732679643479
378341;Aan de vestingrand;HOLIDAY_COTTAGE;BUKKERSSTRAAT;4;8900;Ieper;1;4;;;50.846917;2.890642;Poelkapelle;12.31719334916337
378318;Aan de Visbeekvallei;HOLIDAY_COTTAGE;WETSCHOT;45;2340;Beerse;1;4;;;51.291974;4.787804;Broechem;19.47426755264863
287390;Aan de Vleterbeke;GENERIC_ROOMS;KRUISBOOMSTRAAT;3;8640;Vleteren;1;8;info@aandevleterbeke.be;+32474377238;50.916017;2.746624;Poelkapelle;16.16266892918727
226853;Aan de Vleterbeke;HOLIDAY_COTTAGE;KRUISBOOMSTRAAT;2;8640;Vleteren;1;10;info@aandevleterbeke.be;;50.915863;2.746231;Poelkapelle;16.193188520847205
287389;Aan de Vleterbeke;GENERIC_ROOMS;KRUISBOOMSTRAAT;3;8640;Vleteren;1;8;info@aandevleterbeke.be;+32474377238;50.916017;2.746624;Poelkapelle;16.16266892918727
378402;Aan de Vleterbeke;GENERIC_ROOMS;KRUISBOOMSTRAAT;3;8640;Vleteren;1;4;info@aandevleterbeke.be;+32474377238;50.916017;2.746624;Poelkapelle;16.16266892918727
378403;Aan de Vleterbeke;GENERIC_ROOMS;KRUISBOOMSTRAAT;3;8640;Vleteren;1;8;info@aandevleterbeke.be;+32474377238;50.916017;2.746624;Poelkapelle;16.16266892918727
224504;Aan De Vrietsel;BED_AND_BREAKFAST;WATERMOLENSTRAAT;37;3650;Dilsen-Stokkem;2;4;arnold.olislagers@telenet.be;+32 89 65 64 67;51.030249;5.737163;Lommel;34.58881081119204
301277;Aan de waterkant;BED_AND_BREAKFAST;Vaart Noord;14;9881;Aalter;2;4;vzwrollings.belami75@gmail.com;;51.0968824001359;3.50007856412987;Gent;16.869536639959783
275885;Aan den oever;HOLIDAY_COTTAGE;VEEWEIDE;40;3060;Bertem;1;6;info@aandenoever.be;;50.842865;4.648285;Overijse;9.403535504124862
357285;Aan het Donkmeer - 15;GENERIC_ROOMS;Strijdamstraat;15;9290;Berlare;1;9;delausnayrene@hotmail.com;;;;Herbeumont;5540.271330169284
357286;Aan het Donkmeer - 17;GENERIC_ROOMS;Strijdamstraat;17;9290;Berlare;1;9;delausnayrene@hotmail.com;;;;Herbeumont;5540.271330169284
227517;Aan het Singelhof - Bellefleur;HOLIDAY_COTTAGE;SINGELSTRAAT;24;3800;Sint-Truiden;1;7;info@aanhetsingelhof.be;+32 11 67 37 60;50.803411;5.219846;Sint-Truiden;3.1245600450192215
227518;Aan het Singelhof - Mirabelle;HOLIDAY_COTTAGE;SINGELSTRAAT;22;3800;Sint-Truiden;1;9;info@aanhetsingelhof.be;+32 11 67 37 60;50.803411;5.219846;Sint-Truiden;3.1245600450192215
220482;Aan het Tombos;HOLIDAY_COTTAGE;Oude Katsei;79;3890;Gingelom;1;5;info@aanhettombos.be;+32 11 88 59 90;50.74280528608975;5.142976827312845;Sint-Truiden;7.467432457964273
220481;Aan het Tombos;HOLIDAY_COTTAGE;OUDE KATSEI;79;3890;Gingelom;1;7;info@aanhettombos.be;+32 11 88 59 90;50.74218;5.142024;Sint-Truiden;7.554529971997992
220483;Aan het Tombos;HOLIDAY_COTTAGE;Oude Katsei;79;3890;Gingelom;1;4;info@aanhettombos.be;+32 11 88 59 90;50.74280528608975;5.142976827312845;Sint-Truiden;7.467432457964273
325078;Aan Maas en Grens;HOLIDAY_COTTAGE;BOSSTRAATJE;3;3640;Kinrooi;1;4;aanmaasengrens@hotmail.com;0495628874;51.147112;5.81309;Lommel;32.387662902486746
325079;Aan Maas en Grens;HOLIDAY_COTTAGE;BOSSTRAATJE;3;3640;Kinrooi;1;4;aanmaasengrens@hotmail.com;0495628874;51.147112;5.81309;Lommel;32.387662902486746
229629;Aan zee;HOTEL;MARKT;6;8660;De Panne;12;25;info@aanzeehotel.be;+32 58 41 46 40;51.099025;2.59267;Koksijde;2.7398177419275616
382775;Aan zee in Blankenberge;HOLIDAY_COTTAGE;ROOD-KRUISSTRAAT;8;8370;Blankenberge;1;6;jj@gtdone.be;0475688850;51.30857;3.126875;Koksijde;41.683544097226644
223304;aan zee op Savoie V2;HOLIDAY_COTTAGE;ZEEDIJK;33;8370;Blankenberge;1;4;vlonk@telenet.be;;51.313609;3.117598;Koksijde;41.46464441933873
382842;Aaron 0201;HOLIDAY_COTTAGE;Stationsstraat;19;8420;De Haan;1;4;;;;;Herbeumont;5540.271330169284
212158;Aarsabroch;BED_AND_BREAKFAST;WANTESTRAAT;98;8310;Brugge;3;8;aarsabroch@telenet.be;+32 50 35 69 62;51.196912;3.235021;Poelkapelle;33.54977495069759
357067;Aarts Erik;HOLIDAY_COTTAGE;Kloosterhofstraat;31;3793;Voeren;1;26;;;50.746082;5.877072;Theux;23.40520039421187
276513;Aarts Wellness bvba;GENERIC_ROOMS;Stationsstraat;97;3665;As;3;6;info@aarts-wellness.be;+32 488 28 28 00;51.00579572469776;5.598564123560691;Lommel;30.56372165039171
228954;Aartshertogstraat;HOLIDAY_COTTAGE;AARTSHERTOGSTRAAT;22;8400;Oostende;1;6;info@jolieinvest.be;+32 59 70 79 66;51.215567;2.886106;Koksijde;21.974659354179394
229910;AARTSHERTOGSTRAAT 66 - 0;HOLIDAY_COTTAGE;Aartshertogstraat;66;8400;Oostende;1;4;mariakerke@dermul.be;+32 59 55 10 69;51.21631338792612;2.884301718807602;Koksijde;21.921521207064952
229911;AARTSHERTOGSTRAAT 66 1/1-1X;HOLIDAY_COTTAGE;Aartshertogstraat;66;8400;Oostende;1;5;mariakerke@dermul.be;+32 59 55 10 69;51.21631338792612;2.884301718807602;Koksijde;21.921521207064952
229912;AARTSHERTOGSTRAAT 66 2/2-2X;HOLIDAY_COTTAGE;Aartshertogstraat;66;8400;Oostende;1;5;mariakerke@dermul.be;+32 59 55 10 69;51.21631338792612;2.884301718807602;Koksijde;21.921521207064952
229908;AARTSHERTOGSTRAAT 66 3/3;HOLIDAY_COTTAGE;Aartshertogstraat;66;8400;Oostende;1;5;mariakerke@dermul.be;+32 59 55 10 69;51.21631338792612;2.884301718807602;Koksijde;21.921521207064952
229909;AARTSHERTOGSTRAAT 66 4/4;HOLIDAY_COTTAGE;Aartshertogstraat;66;8400;Oostende;1;2;mariakerke@dermul.be;+32 59 55 10 69;51.21631338792612;2.884301718807602;Koksijde;21.921521207064952
229913;AARTSHERTOGSTRAAT 66 BEL ETAGE/ST;HOLIDAY_COTTAGE;Aartshertogstraat;66;8400;Oostende;1;4;mariakerke@dermul.be;+32 59 55 10 69;51.21631338792612;2.884301718807602;Koksijde;21.921521207064952
303337;Aartshertogstraat 69 3;HOLIDAY_COTTAGE;AARTSHERTOGSTRAAT;69;8400;Oostende;1;6;;;51.216547;2.88414;Koksijde;21.92777186822657
303597;Aatlantis II 252/0102;HOLIDAY_COTTAGE;Albert I Laan;252;8620;Nieuwpoort;1;4;;;51.1466056066807;2.71145542768972;Koksijde;7.642373847727905
227288;Aazaert ;HOTEL;HOOGSTRAAT;25;8370;Blankenberge;58;187;info@aazaert.be;+32 50 41 15 99;51.315415;3.130285;Koksijde;42.3068141202396
222995;Abacus House;HOLIDAY_COTTAGE;CARTONSTRAAT;6;8900;Ieper;1;8;abacus-house@skynet.be;;50.853304;2.88744;Poelkapelle;11.80409874103572
227682;Abalona;BED_AND_BREAKFAST;KOEBOSSTRAAT;60;9200;Dendermonde;13;28;info@abalona.be;;51.032166;4.062229;Gent;23.2071517591208
214303;Abano;HOLIDAY_COTTAGE;LEOPOLDLAAN;107;8300;Knokke-Heist;1;4;thierry.veys@gmail.com;;51.350986;3.287732;Gent;43.9670375743265
216373;ABBAYE 2520B;HOLIDAY_COTTAGE;Rouzéstraat;21/ 23;8670;Koksijde;1;7;servimo@era.be;+32 58 51 23 23;51.1191595720306;2.635400080282191;Koksijde;2.1846817552267774
261516;ABC Apartment;HOLIDAY_COTTAGE;Langestraat;71;8370;Blankenberge;1;6;b.ternier@gmail.com;+32 479 52 68 79;51.31563376946714;3.130326584484752;Koksijde;42.322952327509235
303168;Abc Apartment 3 Long Street;HOLIDAY_COTTAGE;LANGESTRAAT;71;8370;Blankenberge;1;4;b.ternier@gmail.com;+32 479 52 68 79;51.315834;3.13046;Koksijde;42.34321429161643
263795;ABC hotel;HOTEL;Marie-Josélaan;25;8370;Blankenberge;13;34;info@abchotel.be;+32 50 96 02 50;51.3138370068671;3.13445311208596;Koksijde;42.448695175491785
220040;Abdeshof;HOLIDAY_COTTAGE;ABDISWEG;15;8433;Middelkerke;1;25;info@abdeshof.be;+32 59 31 16 64;51.170108;2.812723;Koksijde;14.894598880508887
261517;Abdij Onze-Lieve-Vrouw van Nazareth;GENERIC_ROOMS;Abdijlaan;9;2960;Brecht;;23;abdij.nazareth@telenet.be;+32 3 313 92 50;51.31654332433618;4.632573331113489;Kapellen;12.451586338545718
299017;ABDIJ VILLA;HOLIDAY_COTTAGE;ABDIJSTRAAT;76;8670;Koksijde;1;6;;;51.10857;2.638071;Koksijde;1.0854904850568525
383240;Abeellogies;BED_AND_BREAKFAST;Abeelstraat;22;8700;Tielt;5;10;;;50.979856;3.32589;Poelkapelle;25.169390800338274
384090;Abeellogies;HOLIDAY_COTTAGE;ABEELSTRAAT;22;8700;Tielt;1;12;;;50.979856;3.32589;Poelkapelle;25.169390800338274
222613;Abel Abri;BED_AND_BREAKFAST;KWAADSTRAAT;29;9750;Kruisem;1;4;info@lepuretlimpur.be;;50.904928;3.65676;Gent;19.785679768729906
384681;Abelendreef 2;GENERIC_ROOMS;ABELENDREEF;2;1820;Steenokkerzeel;1;2;sigma77@gmail.com;0472447957;50.924988;4.516231;Steenokkerzeel;1.3260842788566867
240787;Abelenhof 63;HOLIDAY_COTTAGE;Bassevillestraat;63;8434;Middelkerke;1;6;info@laplage.be;;51.15327401892582;2.760400387554826;Koksijde;10.8014458535625
212261;Abelia;HOLIDAY_COTTAGE;SNAGGAARDSTRAAT;80;8000;Brugge;1;5;info@abelia.be;+32 50 38 91 11;51.216253;3.235941;Poelkapelle;35.39870653284391
287442;Abeljano;HOLIDAY_COTTAGE;SMETSTRAAT;36;3501;Hasselt;1;6;agnes@abeljano.be;+32 495 53 24 27;50.882027;5.349601;Sint-Truiden;14.838947004692628
220525;Abeljano;BED_AND_BREAKFAST;SMETSTRAAT;36;3501;Hasselt;1;3;agnes@abeljano.be;+32 495 53 24 27;50.882027;5.349601;Sint-Truiden;14.838947004692628
211331;ABF V1;HOLIDAY_COTTAGE;Vestingstraat_AN;4;2018;Antwerpen;1;2;info@antwerpbusinessflats.be;+3234702862;51.2169750786727;4.41789520677743;Deurne;2.8076657067465773
211332;ABF V2;HOLIDAY_COTTAGE;Vestingstraat_AN;4;2018;Antwerpen;1;2;info@antwerpbusinessflats.be;+3234702862;51.2169750786727;4.41789520677743;Deurne;2.8076657067465773
211330;ABF V3;HOLIDAY_COTTAGE;Vestingstraat_AN;4;2018;Antwerpen;1;2;info@antwerpbusinessflats.be;+3234702862;51.2169750786727;4.41789520677743;Deurne;2.8076657067465773
212200;Abiente;GENERIC_ROOMS;EEKHOUTSTRAAT;30;8000;Brugge;2;4;comobvba@telenet.be;+32477709621;51.206093;3.22832;Poelkapelle;34.15724562331895
211910;Abondance-logies;GENERIC_ROOMS;Cogels-Osylei;3;2600;Antwerpen;4;8;info@abondance-logies.be;+32 468 15 24 77;51.2052283733913;4.43323938042876;Deurne;1.7768459970847879
211345;Abrahams Prinsenhof;GUEST_ROOM;ABRAHAMSTRAAT;5;9000;Gent;3;8;myriame@dolders.be;+32 9 223 41 08;51.057681;3.718185;Gent;2.404325519932384
229011;Abri Antigone 0702;HOLIDAY_COTTAGE;ZEEDIJK-HEIST;722;8300;Knokke-Heist;1;4;verhuur@hetzoute.be;;51.355013;3.296828;Gent;43.83026721196299
210768;Absolute Home;GUEST_ROOM;BEUKELAARSTRAAT;33;9000;Gent;1;4;info@absolutehome.be;;51.061437;3.702678;Gent;2.930048962454145
211596;Acacia ;HOTEL;Korte Zilverstraat;3-5;8000;Brugge;41;88;info@hotel-acacia.com;+32 50 34 44 11;51.2081870206371;3.22198667952538;Poelkapelle;34.125310090716866
261132;Acacia;HOTEL;VANDERSTICHELENSTRAAT;9;8370;Blankenberge;8;20;casawi97@hotmail.com;+32 50 41 43 83;51.314063;3.123495;Koksijde;41.83140007734895
212765;Acacia 01;HOLIDAY_COTTAGE;Van Bunnenlaan;9;8300;Knokke-Heist;1;4;;;51.35239185661439;3.290930985931477;Gent;43.916596039939506
218911;Acacia 102;GENERIC_ROOMS;HENGELHOEFDREEF;5;3530;Houthalen-Helchteren;2;6;;;51.009119;5.466376;Lommel;26.659387467119622
299022;Acacia 103 Hengelhoef;HOLIDAY_COTTAGE;HENGELHOEFDREEF;5;3530;Houthalen-Helchteren;1;2;theo.soetaers@telenet.be;;51.009119;5.466376;Lommel;26.659387467119622
218921;Acacia 105;GENERIC_ROOMS;HENGELHOEFDREEF;5;3530;Houthalen-Helchteren;1;2;;;51.009119;5.466376;Lommel;26.659387467119622
299023;acacia 106 Hengelhoef;HOLIDAY_COTTAGE;HENGELHOEFDREEF;5;3530;Houthalen-Helchteren;1;2;;;51.009119;5.466376;Lommel;26.659387467119622
218917;Acacia 6;GENERIC_ROOMS;HENGELHOEFDREEF;5;3530;Houthalen-Helchteren;1;4;;;51.009119;5.466376;Lommel;26.659387467119622
218916;Acacia 8;GENERIC_ROOMS;HENGELHOEFDREEF;5;3530;Houthalen-Helchteren;1;4;;;51.009119;5.466376;Lommel;26.659387467119622
218689;Acacia A009;HOLIDAY_COTTAGE;TORENHOFSTRAAT;2;8420;De Haan;1;4;info@lindebrings.com;;51.257414;3.00067;Koksijde;31.20068712052449
211599;Academie;HOTEL;WIJNGAARDSTRAAT;7;8000;Brugge;90;201;info@hotelacademie.be;+32 50 33 22 66;51.202258;3.225458;Poelkapelle;33.68931854824822
211688;Acadia;HOLIDAY_COTTAGE;PEPERSTRAAT;17;8000;Brugge;1;5;info@exquisitehomesbruges.be;;51.212271;3.235369;Poelkapelle;35.001055325613976
230530;Acapulco 00.01  (AR);HOLIDAY_COTTAGE;Zouavenplein;8;8670;Koksijde;1;8;info@agencenotredame.be;+32 58 51 15 78;51.12246328269734;2.639176083157741;Koksijde;2.5898389387317424
226731;Acapulco 03.02  (B3);HOLIDAY_COTTAGE;Zouavenplein;8;8670;Koksijde;1;7;info@agencenotredame.be;+32 58 51 15 78;51.12246328269734;2.639176083157741;Koksijde;2.5898389387317424
221573;acapulco 0309;HOLIDAY_COTTAGE;Meeuwenlaan;5;8434;Middelkerke;1;6;info@laplage.be;+32 59 30 15 13;51.1711537987554;2.775631543972557;Koksijde;12.83200273835763
221575;acapulco 0608;HOLIDAY_COTTAGE;MEEUWENLAAN;5;8434;Middelkerke;1;2;info@laplage.be;+32 59 30 15 13;51.171156;2.775273;Koksijde;12.812471529353955
304352;Acapulco 0705;HOLIDAY_COTTAGE;Meeuwenlaan;5;8434;Middelkerke;1;4;;;51.1711631266251;2.77555041294793;Koksijde;12.828189942535431
221577;acapulco 0805;HOLIDAY_COTTAGE;MEEUWENLAAN;5;8434;Middelkerke;1;4;info@laplage.be;+32 59 30 15 13;51.171156;2.775273;Koksijde;12.812471529353955
227988;acapulco 0905;HOLIDAY_COTTAGE;Meeuwenlaan;5;8434;Middelkerke;1;4;geert.candeel@pandora.be;;51.1711537987554;2.775631543972557;Koksijde;12.83200273835763
221572;Acapulco 2A;HOLIDAY_COTTAGE;Meeuwenlaan;5;8434;Middelkerke;1;6;info@laplage.be;+32 59 30 15 13;51.1711537987554;2.775631543972557;Koksijde;12.83200273835763
216753;Acapulco 61;HOLIDAY_COTTAGE;Brieshelling;9;8301;Knokke-Heist;1;5;duinbergen@pallen.be;+32 50 53 08 30;51.34470085344149;3.260344330004474;Gent;44.88880644801408
215264;Acapulco 81;HOLIDAY_COTTAGE;BRIESHELLING;9;8301;Knokke-Heist;1;6;;;51.344675;3.260142;Gent;44.89741464417006
226725;Acapulco ACA A5;HOLIDAY_COTTAGE;Zouavenplein;8;8670;Koksijde;1;5;info@agencenotredame.be;+32 58 51 15 78;51.12246328269734;2.639176083157741;Koksijde;2.5898389387317424
226726;Acapulco ACA A6;HOLIDAY_COTTAGE;Zouavenplein;8;8670;Koksijde;1;8;info@agencenotredame.be;+32 58 51 15 78;51.12246328269734;2.639176083157741;Koksijde;2.5898389387317424
226727;Acapulco ACA B1;HOLIDAY_COTTAGE;Zouavenplein;8;8670;Koksijde;1;8;info@agencenotredame.be;+32 58 51 15 78;51.12246328269734;2.639176083157741;Koksijde;2.5898389387317424
226728;Acapulco ACA B2;HOLIDAY_COTTAGE;Zouavenplein;8;8670;Koksijde;1;6;info@agencenotredame.be;+32 58 51 15 78;51.12246328269734;2.639176083157741;Koksijde;2.5898389387317424
226729;Acapulco ACA B6;HOLIDAY_COTTAGE;Zouavenplein;8;8670;Koksijde;1;6;info@agencenotredame.be;+32 58 51 15 78;51.12246328269734;2.639176083157741;Koksijde;2.5898389387317424
226730;Acapulco ACA REZ;HOLIDAY_COTTAGE;Zouavenplein;8;8670;Koksijde;1;8;info@agencenotredame.be;+32 58 51 15 78;51.12246328269734;2.639176083157741;Koksijde;2.5898389387317424
301076;ACAPULCO D3/0306;HOLIDAY_COTTAGE;Meeuwenlaan;5;8434;Middelkerke;1;4;;;51.1711631266251;2.77555041294793;Koksijde;12.828189942535431
301460;Acapulco TCD;HOLIDAY_COTTAGE;Meeuwenlaan;5;8434;Middelkerke;1;4;;;51.1711631266251;2.77555041294793;Koksijde;12.828189942535431
218904;Acasia 2/7;GENERIC_ROOMS;HENGELHOEFDREEF;5;3530;Houthalen-Helchteren;1;10;;;51.009119;5.466376;Lommel;26.659387467119622
212238;Accommodation Lodging Bruges;HOLIDAY_COTTAGE;KAZERNEVEST;56;8000;Brugge;1;6;;+32 50 28 14 88;51.206768;3.238195;Poelkapelle;34.589490566689875
378592;Achilles;BED_AND_BREAKFAST;Kunstlaan;18;9000;Gent;5;12;ines.merckaert@investocats.be;0494 11 00 04;;;Herbeumont;5540.271330169284
345653;Achilles & Co;GENERIC_ROOMS;BEUKENDREEF;11;8020;Oostkamp;2;2;laurencevanparys@gmail.com;0474330889;51.107574;3.280456;Poelkapelle;28.209176478098687
227611;Achter de dijk;GUEST_ROOM;HEKKESTRAAT;24;2890;Puurs-Sint-Amands;3;6;achterdedijk@skynet.be;+3252336567;51.052732;4.20344;Neder-Over-Heembeek;20.689837084733476
220857;Achter de duinen;HOLIDAY_COTTAGE;KUSTWEG;99;8620;Nieuwpoort;1;5;info@achtertuin.be;;51.156314;2.748381;Koksijde;10.313579134465057
276493;Achterhuis Zilversmidskamer;BED_AND_BREAKFAST;LANGE KOEPOORTSTRAAT;58;2000;Antwerpen;1;3;zilversmidskamer@gmail.com;+32 494 04 74 13;51.222225;4.40235;Deurne;4.0129720715304815
276964;Acotee d'O;HOLIDAY_COTTAGE;GIJVERINKHOVESTRAAT;2;8691;Alveringem;1;14;info@cotewest.be;;50.966691;2.667482;Koksijde;15.002760908716416
378812;Acropolis;HOTEL;Westendelaan;94;8430;Middelkerke;44;100;info@hotelacropolis.be;+32484555888;51.177181;2.804643;Koksijde;14.858490222671746
215356;Acropolis;HOLIDAY_COTTAGE;ZWALUWENLAAN;3;8300;Knokke-Heist;1;4;david@alexdewulf.be;+32 50 62 30 00;51.349449;3.282207;Gent;44.126296351939466
212082;Adagio Bed & Breakfast;BED_AND_BREAKFAST;GASTON ROELANDTSPLEIN;8;8310;Brugge;2;5;roland.schils@telenet.be;;51.201285;3.247289;Poelkapelle;34.43127973923233
287539;Adamas B&B;BED_AND_BREAKFAST;Sint Gillislaan;24;9200;Dendermonde;3;6;info@adamasbb.be;;51.0209115120756;4.10851775476138;Neder-Over-Heembeek;23.370457106831072
275150;Addendum;HOLIDAY_COTTAGE;WIJERVELDSTRAAT;63;3500;Hasselt;1;2;paul.heleven@telenet.be;+32 472 63 93 54;50.902759;5.321835;Sint-Truiden;14.836091033394055
230420;Adelaide;HOLIDAY_COTTAGE;WIJNSTRAAT;28;9600;Ronse;1;20;contact@adelaide.be;+32 471 19 52 42;50.748477;3.598209;Mouscron;28.073796159648275
382697;Adelante;GENERIC_ROOMS;SCHEEPVAARTKAAI;0;3500;Hasselt;1;4;;;;;Herbeumont;5540.271330169284
378752;Adele;HOLIDAY_COTTAGE;Kesseltweg;53;3620;Lanaken;1;6;gilberte@moors-interieur.be;+32 476 33 43 25;;;Herbeumont;5540.271330169284
379631;Adele en Anais;HOLIDAY_COTTAGE;Kesseltweg;51;3620;Lanaken;1;12;gilberte@moors-interieur.be;+32 476 33 43 25;50.841596;5.634873;Liège;18.939066542669146
250889;Adeline 0701;HOLIDAY_COTTAGE;Zeedijk;153;8430;Middelkerke;1;8;info@sissau.be;;51.18961741346606;2.81926637140837;Koksijde;16.502190436249453
213454;Ademkeer;HOLIDAY_COTTAGE;STADIONSTRAAT;12;8300;Knokke-Heist;1;5;ademkeer@telenet.be;;51.339147;3.288908;Gent;43.00098380534932
218198;ADMIRAL 2WEST;HOLIDAY_COTTAGE;Zeedijk;122;8430;Middelkerke;1;6;info@depoorter.be;+32 59 30 28 56;51.18701963692497;2.812810751472945;Koksijde;15.968064524030183
381255;ADMIRAL 3 W/0301;HOLIDAY_COTTAGE;ZEEDIJK;122;8430;Middelkerke;1;6;;;51.187176;2.812569;Koksijde;15.96523097442988
216624;Admiral 4 OOST;HOLIDAY_COTTAGE;Zeedijk;122;8430;Middelkerke;1;8;info@becue.be;+32 59 30 13 62;51.18701963692497;2.812810751472945;Koksijde;15.968064524030183
299359;Admiral 7 OOST;HOLIDAY_COTTAGE;ZEEDIJK;;8430;Middelkerke;1;6;;;51.187858;2.814223;Koksijde;16.103163659660396
384540;ADMIRAL 7 OOST/ 0702;HOLIDAY_COTTAGE;ZEEDIJK;122;8430;Middelkerke;1;6;;;51.187176;2.812569;Koksijde;15.96523097442988
216625;Admiral 9 WEST;HOLIDAY_COTTAGE;Zeedijk;122;8430;Middelkerke;1;6;info@becue.be;+32 59 30 13 62;51.18701963692497;2.812810751472945;Koksijde;15.968064524030183
384437;Adnet Thomas;HOLIDAY_COTTAGE;Zeedijk;63;8660;De Panne;1;5;;;;;Herbeumont;5540.271330169284
211866;Adoma;HOTEL;SINT-DENIJSLAAN;19;9000;Gent;15;30;info@hotel-adoma.be;+32 9 222 65 50;51.033884;3.714688;Gent;4.882683495463142
211620;Adonis;BED_AND_BREAKFAST;SINT-JANSSTRAAT;4;8000;Brugge;2;7;info@gastenkamers-adonis.be;+32 50 33 02 07;51.210756;3.226431;Poelkapelle;34.530457903719686
213732;Adonis;HOLIDAY_COTTAGE;Prins Karellaan;29;8421;De Haan;1;8;info@agencecambre.be;+32 59 23 35 17;51.2785695543949;3.03897669609999;Koksijde;34.736771087173274
217469;Adonis 04.01;HOLIDAY_COTTAGE;Kursaallaan;42;8670;Koksijde;1;6;info@ultimmo.be;+32 58 52 07 92;51.11809176951142;2.632216651192619;Koksijde;2.0512904217748305
211574;Adornes;HOTEL;SINT-ANNAREI;26;8000;Brugge;20;46;info@adornes.be;+32 50 34 13 36;51.212825;3.229545;Poelkapelle;34.840134847726034
378371;Adriansens Stijn;GENERIC_ROOMS;Mortierstraat;3;8000;Brugge;1;4;stijn.adriansens@telenet.be;+32 485 64 20 76;51.209834;3.215922;Poelkapelle;34.067186696849646
219661;Aen de Lossing;BED_AND_BREAKFAST;DONKSTRAAT;99;3640;Kinrooi;2;5;;+32 89 56 68 69;51.129083;5.782253;Lommel;31.114779918121883
223058;Aen Den Leewerk - Appel;HOLIDAY_COTTAGE;Kortijsstraat;14;3890;Gingelom;1;4;aendenleewerk@hotmail.com;+32 11 83 15 80;50.71547986815455;5.146733251703682;Sint-Truiden;10.344454754169847
223059;Aen Den Leewerk - Boompje;HOLIDAY_COTTAGE;Kortijsstraat;14;3890;Gingelom;1;2;aendenleewerk@hotmail.com;+32 11 83 15 80;50.71547986815455;5.146733251703682;Sint-Truiden;10.344454754169847
223057;Aen Den Leewerk - Peer;HOLIDAY_COTTAGE;KORTIJSSTRAAT;14;3890;Gingelom;1;4;aendenleewerk@hotmail.com;+32 11 83 15 80;50.715475;5.146464;Sint-Truiden;10.34877004610334
222406;Aerdenhof;HOLIDAY_COTTAGE;KREYELERSTRAAT;22;3950;Bocholt;1;5;aerdenhof@gmail.com;+32 89 46 18 64;51.179822;5.60129;Lommel;17.252616175786844
222878;Aerdgoed;BED_AND_BREAKFAST;BEIAARDSTRAAT;2;8860;Lendelede;4;12;info@aerdgoed.be;+32 56 35 86 07;50.875175;3.225989;Mouscron;15.006261997141802
276384;Aftersurf;HOLIDAY_COTTAGE;Leopold II Laan;184;8670;Koksijde;1;4;miguel.vanhollebeke@myonline.be;+32 495 53 40 52;51.1269447043993;2.67551342955332;Koksijde;4.312753347212128
216823;Agamemnon 4H;HOLIDAY_COTTAGE;Zeedijk;706;8300;Knokke-Heist;1;8;agence@hetzoute.be;+32 50 60 33 33;51.35456352085134;3.295407945689295;Gent;43.86481818098111
380723;Agelandkaai;GENERIC_ROOMS;HAGELANDKAAI;53;9000;Gent;1;2;agelandkaai@gmail.com;0484072689;51.05658;3.737993;Gent;2.0672730621745026
227442;agence het zoute;HOLIDAY_COTTAGE;Kustlaan;105;8300;Knokke-Heist;1;6;verhuur@hetzoute.be;+32 50 60 33 33;51.35445095568127;3.297474692049503;Gent;43.75417938057056
221870;Agnetenklooster;BED_AND_BREAKFAST;SIONSTRAAT;17;3680;Maaseik;5;10;info@agnetenklooster.be;+32 89 56 43 27;51.094799;5.796667;Lommel;33.724547126658734
380293;agredable;GENERIC_ROOMS;DENDERMONDSESTEENWEG;107;2830;Willebroek;1;2;ronan.picavet@gmail.com;+32476421926;51.060021;4.354654;Neder-Over-Heembeek;17.020840234166652
303283;Agreon 8;HOLIDAY_COTTAGE;Nicolas Mengélaan;22;8300;Knokke-Heist;1;6;;;51.3400503012287;3.23738717717212;Gent;45.761489677153186
211887;Ahome Awayfromhome;HOLIDAY_COTTAGE;HOOGSTRAAT;63;2000;Antwerpen;1;4;info@ahomeantwerp.be;;51.218823;4.397368;Deurne;4.252149437406489
261167;Aigues Marines 0601;HOLIDAY_COTTAGE;Zeedijk;48;8620;Nieuwpoort;1;6;verhuur@eecke.be;;51.1478842870593;2.71377908538037;Koksijde;7.858301469913809
220211;Aigues Marines D 09/04.02;HOLIDAY_COTTAGE;Zeedijk;48;8620;Nieuwpoort;1;6;verhuur@immostrand.be;+32 58 23 88 84;51.1477705578322;2.713963312653286;Koksijde;7.859111993111623
221280;AILES PICARDES AIL 8.3;HOLIDAY_COTTAGE;Zeedijk;254;8670;Koksijde;1;6;agencenotredame@skynet.be;+32 58 51 15 78;51.11920307118789;2.629872709163031;Koksijde;2.1787445105143286
378249;Ailleurs;GENERIC_ROOMS;Stichelendries;8;9340;Lede;1;2;peterderie@gmail.com;+32 497 34 14 14;;;Herbeumont;5540.271330169284
230374;Aimée;HOLIDAY_COTTAGE;PADDEPOELSTRAAT;14;8900;Ieper;1;6;info@vakantiehuis-aimee.be;+32 477 43 11 74;50.84836;2.890125;Poelkapelle;12.192318390488708
380091;Air b&b;GENERIC_ROOMS;SINT-KATELIJNEVEST;2-4;2000;Antwerpen;1;4;xaviersiales@hotmail.com;;51.220912;4.405256;Deurne;3.775389671102567
378432;air B&B;HOLIDAY_COTTAGE;ZAVELSTRAAT;4;2990;Wuustwezel;1;2;;;51.38978;4.57149;Kapellen;12.016428152091148
378574;AIR B&B BIJ SAROJ;GENERIC_ROOMS;ZUIVELMARKT;34;3500;Hasselt;1;2;poolpalace94@hotmail.com;+32499625867;50.931444;5.340229;Sint-Truiden;18.077103329804277
345805;Air B&B te Westerlo;GENERIC_ROOMS;BERGVELD;99;2260;Westerlo;2;6;info@guygiraud.com;0477887129;51.076586;4.876441;Broechem;23.43250775352986
379565;Air BNB;HOLIDAY_COTTAGE;LANGEMUNT;2;9000;Gent;1;1;julie.douchy@outlook.be;+31497314640;51.055865;3.722663;Gent;2.412108025613158
379566;Air BNB;HOLIDAY_COTTAGE;LANGEMUNT;2;9000;Gent;1;1;julie.douchy@outlook.be;+31497314640;51.055865;3.722663;Gent;2.412108025613158
379567;Air BNB;HOLIDAY_COTTAGE;LANGEMUNT;2;9000;Gent;1;1;julie.douchy@outlook.be;+31497314640;51.055865;3.722663;Gent;2.412108025613158
382535;Air BnB;BED_AND_BREAKFAST;HUNNEBERGSTRAAT;8;3900;Pelt;1;2;heidicox7@hotmail.com;0032472776760;51.194355;5.388251;Lommel;5.353285887949712
382496;Air bnb ;GENERIC_ROOMS;Elleboogstraat ;38;9570;Lierde;1;4;ingebuggenhout@hotmail.com;;;;Herbeumont;5540.271330169284
383027;Air Bnb;BED_AND_BREAKFAST;EINDHOVENSEBAAN;53;3940;Hechtel-Eksel;2;4;Mirese.vanderlinden@UCLL.be;0477954496;;;Herbeumont;5540.271330169284
382560;Air bnb;BED_AND_BREAKFAST;JOZEF NELLENSLEI;26;2100;Antwerpen;1;1;vanessa.wuyts84@gmail.com;0499364836;51.226294;4.451847;Deurne;1.7369282852338417
382149;AIR BnB ;HOLIDAY_COTTAGE;MOLENAARSTRAAT;39;2180;Antwerpen;1;12;redi_chess@hotmail.com;0496830676;51.280011;4.417558;Kapellen;4.2545899481944
325234;Air BNB;BED_AND_BREAKFAST;GOUVERNEMENTSTRAAT;5-5M;9000;Gent;2;4;johanghekiere@gmail.com;+32475961726;51.05102;3.726567;Gent;2.809941552911377
378827;AIr BnB;BED_AND_BREAKFAST;LÉON SCHREURSVEST;71;3001;Leuven;1;2;janoshams92@gmail.com;0476480110;50.871326;4.712497;Overijse;14.446385755825087
382237;Air BNB Arnout;BED_AND_BREAKFAST;MELLESTRAAT;123;8501;Kortrijk;1;2;arnoutvercruysse@gmail.com;0032471203244;50.851294;3.228504;Mouscron;12.39951249696028
345710;air bnb Diest;BED_AND_BREAKFAST;STATIESTRAAT;55;3290;Diest;1;4;tim_blockx@yahoo.com;0475351324;50.98854;5.050711;Zoutleeuw;19.544824454398764
287447;air BnB Ganzendries 126;BED_AND_BREAKFAST;GANZENDRIES;126;9000;Gent;1;2;;;51.032835;3.712392;Gent;5.048394956424763
345848;Air bnb kim en bart;BED_AND_BREAKFAST;HUGO VERRIESTSTRAAT;19;9100;Sint-Niklaas;1;2;vermeulen.bart4@telenet.be;0485097056072;51.167187;4.129276;Deurne;23.42068515112643
314543;Air BNB privé kamer verhuur;GENERIC_ROOMS;Prins Albertstraat;40;8310;Brugge;1;1;celien.de.cloedt@gmail.com;0474576718;51.21159362138688;3.242922868274256;Poelkapelle;35.21974562195006
382079;Air Bnb Van Peltstraat 62;HOLIDAY_COTTAGE;VAN PELTSTRAAT;62;2018;Antwerpen;1;4;valerie.gerets@gmail.com;+32499289624;51.199339;4.397399;Deurne;4.359088641132253
357500;air bnb Wolstraat 10,2000 Antwerpeen;GENERIC_ROOMS;WOLSTRAAT;10;2000;Antwerpen;1;1;elise.bastanie@hotmail.com;0032479032175;51.221605;4.403104;Deurne;3.9417896547555684
383510;Airb&b;GENERIC_ROOMS;Haiglaan ;121;8900;Ieper;1;2;;;;;Herbeumont;5540.271330169284
383715;AirB&B;GENERIC_ROOMS;'S-GRAVENSTRAAT;37;8000;Brugge;1;1;marie_astaes@hotmail.com;0485066268;51.220247;3.228834;Poelkapelle;35.5228924114945
377881;Airbnb;BED_AND_BREAKFAST;HAGEPREEKSTRAAT;52;9050;Gent;1;2;vandevreken.hannes@gmail.com;+32472730233;51.034968;3.745095;Gent;4.496329606530998
345583;Airbnb;GENERIC_ROOMS;OVERZET;2;9000;Gent;1;2;rubenvanbockstael@gmail.com;0474388075;51.052182;3.699517;Gent;3.734709097267319
324778;Airbnb;GENERIC_ROOMS;Louis Van Houttestraat;14;9050;Gent;1;1;;;51.04314826443662;3.746187246443469;Gent;3.603460019862618
346051;airbnb;BED_AND_BREAKFAST;ALBERT ROWIESSTRAAT;12;1560;Hoeilaart;1;3;katobosserez@hotmail.com;026570226;50.762314;4.473019;Rixensart;6.099746712599592
382116;Airbnb ;BED_AND_BREAKFAST;BERKENLAAN;59;2610;Antwerpen;2;4;;;51.182421;4.394379;Deurne;5.407493293968878
378159;Airbnb;GENERIC_ROOMS;MECHELSESTEENWEG;120-122;2018;Antwerpen;1;2;;;51.206393;4.410039;Deurne;3.3175508004090273
382688;Airbnb;GENERIC_ROOMS;ANKERSTRAAT;22;9506;Geraardsbergen;1;1;bartsteenhoudt8@gmail.com;054500598;50.799374;3.92756;Gent;33.43903895994093
378638;AIRBNB;BED_AND_BREAKFAST;HICKENDORFDREEF;17;2390;Malle;1;3;HILDEHEE@HOTMAIL.COM;+32475870136;51.277339;4.6589;Broechem;12.641243787910215
384121;Airbnb;GENERIC_ROOMS;CANADEZENLAAN;77;2950;Kapellen;1;3;ellen_bots@hotmail.com;;51.361596;4.447994;Kapellen;5.694261161822125
384174;airbnb;GENERIC_ROOMS;TOLHUISLAAN;164;9000;Gent;1;2;;;51.065287;3.726722;Gent;1.3680542748652853
250808;airbnb;BED_AND_BREAKFAST;WELDADIGHEIDSTRAAT;16;9050;Gent;2;2;babsmestdagh@hotmail.com;;51.033574;3.743153;Gent;4.638724662663356
356482;Airbnb;BED_AND_BREAKFAST;WAPENSTILSTANDLAAN;10;2600;Antwerpen;1;2;;;51.203095;4.443747;Deurne;1.2750941927265849
382015;Airbnb;GENERIC_ROOMS;DENDERMONDESTRAAT;46;2018;Antwerpen;1;4;;;51.203853;4.393119;Deurne;4.5305985556715465
382042;Airbnb;BED_AND_BREAKFAST;JASMIJNSTRAAT;35;3500;Hasselt;1;2;;;50.929208;5.321499;Sint-Truiden;17.063343604812957
345581;airbnb;GENERIC_ROOMS;ARENBERGSTRAAT;40;2000;Antwerpen;1;1;;0476460015;51.21537;4.408852;Deurne;3.394914810308838
275209;AirBnB;BED_AND_BREAKFAST;Wierookstuk;3;2550;Kontich;1;3;leen.ruts@telenet.be;+32 3 289 07 18;51.12606308462589;4.475524863254241;Broechem;9.136797836753226
382084;Airbnb;BED_AND_BREAKFAST;Vlamingstraat;62;8000;Brugge;1;2;vdlcolette@gmail.com;0498870789;51.210735;3.224295;Poelkapelle;34.45137064138715
383644;Airbnb;GENERIC_ROOMS;DE KNOK;44;8560;Wevelgem;1;2;natalie.moutton@gmail.com;0498071321;50.846757;3.217552;Mouscron;11.798523287394195
384107;AirBnb;BED_AND_BREAKFAST;DOORNELEI;2;2018;Antwerpen;1;1;struyfthomas@gmail.com;0494196986;51.195526;4.409443;Deurne;3.7400243642039803
357066;AIRBNB;BED_AND_BREAKFAST;ROOMBAARDSTRAAT;12A;9810;Nazareth;1;1;pascale.schotte@hotmail.com;0475835913;50.960677;3.62272;Gent;15.10135773340612
378612;Airbnb;HOLIDAY_COTTAGE;HUYBERGSEBAAN;90;2910;Essen;1;4;andrea@dutchmail.com;0485067516;51.423928;4.451602;Kapellen;12.613720270264706
378613;Airbnb;HOLIDAY_COTTAGE;HUYBERGSEBAAN;90;2910;Essen;1;4;andrea@dutchmail.com;0485067516;51.423928;4.451602;Kapellen;12.613720270264706
299111;airbnb;BED_AND_BREAKFAST;VELDEGEMSESTRAAT;160;8210;Zedelgem;1;2;caroline.tavernier@telenet.be;;51.124513;3.164929;Poelkapelle;24.128911973280847
346454;AirBnB;BED_AND_BREAKFAST;Aaigemstraat;23;9000;Gent;1;1;BrunoArteaga@Gmail.com;+32488075812;51.03866;3.709365;Gent;4.541010448043657
345807;Airbnb;HOLIDAY_COTTAGE;DAMBRUGGESTRAAT;39;2060;Antwerpen;1;1;;;51.219938;4.423333;Deurne;2.5494653485047785
314773;Airbnb;HOLIDAY_COTTAGE;Klauwaardsstraat;26;2600;Antwerpen;1;4;llen2001@yahoo.com;0032477984649;51.19398103963657;4.418841652363412;Deurne;3.268066545359718
346054;AirBNb;GENERIC_ROOMS;ARENDSTRAAT;55;2018;Antwerpen;4;4;;;51.206886;4.429069;Deurne;2.0010066999384897
346083;Airbnb;GENERIC_ROOMS;MONSEIGNEUR SCHEPPERSSTRAAT;25;2800;Mechelen;2;4;katrien.leyers@gmail.com;;51.021117;4.467234;Steenokkerzeel;12.41204285130328
379355;Airbnb;GENERIC_ROOMS;PANNEBEKESTRAAT;62;8000;Brugge;2;4;anneliesflitser@gmail.com;0498057849;51.226848;3.232845;Poelkapelle;36.29798778963787
345748;airbnb;GENERIC_ROOMS;VARENDREEF;14;2275;Lille;1;2;ve.dlange@gmail.com;+320493527550;51.274090972802;4.8090016343962;Broechem;19.40539578356153
379778;Airbnb;GENERIC_ROOMS;VOLKSTRAAT;65;2000;Antwerpen;1;2;;;51.210091;4.394787;Deurne;4.344381711456546
304468;airbnb;GENERIC_ROOMS;Leopoldslei;110;2930;Brasschaat;1;6;avandijck@skynet.be;0473916943;51.29513337642774;4.483394786146441;Kapellen;2.660868917718922
356557;Airbnb;BED_AND_BREAKFAST;KORTE LEEMSTRAAT;47;2018;Antwerpen;4;4;dries_desutter@hotmail.com;0474211536;51.208161;4.412048;Deurne;3.1530476690135107
380959;airbnb;GENERIC_ROOMS;EDWARD PYNAERTKAAI;106;9000;Gent;1;2;;;51.041237;3.73974;Gent;3.77526056656306
383939;Airbnb;GENERIC_ROOMS;PRINSESSTRAAT;42;2000;Antwerpen;4;4;jorisvanbriel@msn.com;0472808953;51.221012;4.410126;Deurne;3.4549071147268147
382575;AirBnb - kamer ;BED_AND_BREAKFAST;KONING ALBERTLAAN;154;9000;Gent;1;2;haeck_ilse@hotmail.com;0473518565;51.040468;3.710273;Gent;4.332760357688855
377989;"AirBnB ""Den DAM""";HOLIDAY_COTTAGE;DRIESNELLENSTRAAT;6;2060;Antwerpen;1;2;daanvernimmen@hotmail.com;+32474537034;;;Herbeumont;5540.271330169284
357715;Airbnb 1;GENERIC_ROOMS;LANGE NIEUWSTRAAT;141;2000;Antwerpen;1;2;;;51.219631;4.41395;Deurne;3.1530812223442273
287451;AirBnb Aalter;BED_AND_BREAKFAST;BELLEMSTRAAT;43;9880;Aalter;1;3;dedtig@gmail.com;;51.084434;3.451792;Gent;20.10806366124457
345626;Airbnb Ame;GENERIC_ROOMS;VOGELMARKT;41;9000;Gent;1;2;daylancita@hotmail.com;+32468417635;51.050452;3.725523;Gent;2.8923191876308407
345899;Airbnb Bart Claessens;HOLIDAY_COTTAGE;GIJZELAARSSTRAAT;76;2000;Antwerpen;1;1;bart.cla@gmail.com;0486104181;51.205618;4.388383;Deurne;4.828356366301151
384676;AirBNB Bordon;GENERIC_ROOMS;OUDENAARDSEWEG;140;9790;Wortegem-Petegem;1;2;peter.bordon@telenet.be;+32496171898;50.855113;3.569579;Gent;27.19998576698152
324962;Airbnb Colman;GENERIC_ROOMS;FREDERIK BURVENICHSTRAAT;200;9050;Gent;1;2;;;51.040535;3.756447;Gent;4.055554547691949
379790;Airbnb DE HOND BLAFT;GENERIC_ROOMS;Karel Anrheunisstraat;47;9000;Gent;1;5;miedaneels@hotmail.com;+32485847106;;;Herbeumont;5540.271330169284
384831;airbnb Gent;GENERIC_ROOMS;JAN VAN GENTSTRAAT;4;9000;Gent;1;5;ine-onkelinx@hotmail.com;0498241339;51.056603;3.735486;Gent;2.0743361003446052
380934;airbnb Genua;HOLIDAY_COTTAGE;GENUASTRAAT;17;2000;Antwerpen;1;2;genua17@outlook.be;0474564837;51.233905;4.412356;Deurne;4.0233678018485755
382780;AirBnB Groenenhoek;BED_AND_BREAKFAST;HERCULUSSTRAAT;2;2600;Antwerpen;1;4;;;51.201214;4.439121;Deurne;1.6549921881482181
346426;Airbnb guest house;BED_AND_BREAKFAST;KEMZEKESTRAAT;33;9190;Stekene;1;1;mark.vankerchove@pandora.be;0476354162;51.210394;4.082276;Deurne;26.18125708043808
382126;Airbnb hoeve pyckavet;GENERIC_ROOMS;KOOLKERKESTEENWEG;78;8340;Damme;1;4;isabel.hutsebaut@gmail.com;0475916995;51.257544;3.260096;Gent;39.12496597945788
345649;Airbnb Hofmeierstraat ;GENERIC_ROOMS;HOFMEIERSTRAAT;5;9000;Gent;1;2;;0488483045;51.031873;3.709646;Gent;5.219559367997896
261510;airbnb huurders;GENERIC_ROOMS;RODESTRAAT;25;2000;Antwerpen;2;2;maximevanhees@msn.com;+32 497 50 48 64;51.223633;4.413933;Deurne;3.316670968252064
382803;Airbnb kamer;GENERIC_ROOMS;KARPERSTRAAT;91;9000;Gent;1;2;helenagheeraert@hotmail.com;0479353033;51.045889;3.743066;Gent;3.2731810915926483
383056;Airbnb kamer;GENERIC_ROOMS;NADINE CRAPPÉSTRAAT;32;9000;Gent;1;1;jeverdoo@gmail.com;0486917208;51.054163;3.692078;Gent;3.9976246033803142
381474;Airbnb Kamers;BED_AND_BREAKFAST;GOUDENREGENSTRAAT;29;8000;Brugge;1;2;bart.labeur@lablifeconsult.com;0494258127;51.234473;3.210665;Poelkapelle;36.290575210139465
383333;Airbnb Lau en Javi;BED_AND_BREAKFAST;DRONGENSESTEENWEG;98;9000;Gent;1;8;laurensriviere95@gmail.com;0494904171;51.05654;3.69836;Gent;3.485943586908454
298956;Airbnb Leuven;BED_AND_BREAKFAST;Tiensevest;54;3000;Leuven;1;2;annelies78@yahoo.com;;50.87947907751145;4.715005740439566;Steenokkerzeel;14.727228405328963
380455;airbnb loft;GENERIC_ROOMS;WOLLESTRAAT;25;8000;Brugge;1;4;;+32476456477;51.207698;3.225929;Poelkapelle;34.221595426582226
382075;Airbnb Mattele;HOLIDAY_COTTAGE;VEKESTRAAT;25;2800;Mechelen;1;6;benjaminmattele@hotmail.com;0499380297;51.022452;4.470777;Steenokkerzeel;12.494749789898748
377913;airbnb Nathalie;HOSTEL;HUNDELGEMSESTEENWEG;154;9820;Merelbeke;7;7;nathaliesterckx.ns@gmail.com;0479838483;51.021139;3.752965;Gent;6.096584219645207
383122;Airbnb Nina & Stijn;GENERIC_ROOMS;RUSTENBURGSTRAAT;85;8000;Brugge;1;2;ninacuelenaere@hotmail.com;0474805676;51.222076;3.203008;Poelkapelle;34.82072928014732
384611;Airbnb sens;GENERIC_ROOMS;VISITATIESTRAAT;187;9040;Gent;1;2;stijndb@live.be;0485576173;51.068019;3.749589;Gent;1.1185536484194556
382301;Airbnb Sint-Jansdreef 5;GENERIC_ROOMS;Sint-Jansdreef;5;9000;Gent;1;1;koen_dewulf@telenet.be;;;;Herbeumont;5540.271330169284
357725;Airbnb Spoorweglaan 5 / 2 B;GENERIC_ROOMS;Spoorweglaan;5;9880;Aalter;1;2;adinda.de.wulf@hotmail.be;+32 474 48 31 52;;;Herbeumont;5540.271330169284
384777;AirBnb Station Aalst;GENERIC_ROOMS;STATIONSSTRAAT;35;9300;Aalst;1;4;mexico@telenet.be;0475337566;50.942255;4.038438;Neder-Over-Heembeek;24.97784556219351
379976;Airbnb Van de Walle;HOLIDAY_COTTAGE;ZEEDIJK;346;8400;Oostende;1;2;vandewalle60@gmail.com;0478353977;51.207941;2.860887;Koksijde;20.05229259058662
379182;Airbnb woning;GENERIC_ROOMS;LANGE LOZANASTRAAT;121;2018;Antwerpen;1;2;;;51.202646;4.405467;Deurne;3.7156242723102837
346431;Airbnb-kamer;GENERIC_ROOMS;Peperstraat ;8;9890;Gavere;1;3;wennevandereviere@gmail.com;0495564087;50.9519015050897;3.68371597023257;Gent;14.238464391943968
345741;Airbnboulevard;GENERIC_ROOMS;GROENINGELAAN;15;8500;Kortrijk;2;6;tine.lemaitre@gmail.com;0032474993976;50.829783;3.275349;Mouscron;11.170766459228052
224323;Aire de Repos;GENERIC_ROOMS;BIESSTRAAT;2;9636;Zwalm;3;7;info@airederepos.be;;50.887342;3.689258;Gent;21.17703482219675
227938;AIRSTREAM-INN;GENERIC_ROOMS;GEEBROEK;63;3700;Tongeren;1;2;airstream-inn@telenet.be;+32 472 47 13 37;50.789098;5.456683;Liège;13.703196102623716
277041;Ajuinlei 15C;GENERIC_ROOMS;AJUINLEI;15;9000;Gent;2;4;thomas@vivalavida.be;+32 487 64 37 72;51.051197;3.720203;Gent;2.954118035945415
299144;Ajuinleie;HOLIDAY_COTTAGE;Ajuinlei;14;9000;Gent;1;5;bert.paesbrugghe@gmail.com;;;;Herbeumont;5540.271330169284
380822;Akasha retreat Center;GENERIC_ROOMS;Meerstraat;2;3870;Heers;3;12;info@akasharetreatcenter.com;;;;Herbeumont;5540.271330169284
378837;akemi;BED_AND_BREAKFAST;VIJFBUNDERWEG;40;1980;Zemst;3;6;anja@akemi-bnb.be;+32499336549;50.978753;4.410977;Neder-Over-Heembeek;7.9434434618856855
261180;Akina;HOLIDAY_COTTAGE;Nieuwpoortlaan ;51;8660;De Panne;1;7;agence@driemo.be;;51.1039127501288;2.59284110602424;Koksijde;2.767618780782846
240665;Akina 1101C;HOLIDAY_COTTAGE;Nieuwpoortlaan;51;8660;De Panne;1;4;info@agencemulier.be;;51.10390275918694;2.592928656464493;Koksijde;2.7613869408588965
221319;Akkermanshof;HOLIDAY_COTTAGE;Jennenstraat;28;3950;Bocholt;1;7;info@akkermanshof.be;+32 89 47 39 74;51.18060871898752;5.602534527648938;Lommel;17.297660702060096
297817;Akkernest;HOLIDAY_COTTAGE;EENDEPOELSTRAAT;2;8954;Heuvelland;1;24;info@akkernest.be;+32 494 85 90 01;50.815932;2.718568;Poelkapelle;22.89126238712424
303254;Akron 6.1;HOLIDAY_COTTAGE;PIERRE SORELLAAN;36;8670;Koksijde;1;6;;;51.120044;2.639061;Koksijde;2.3249875986387054
345681;AKROPOLIS I 0403;HOLIDAY_COTTAGE;ALBERT I LAAN;123;8670;Koksijde;1;4;;;51.13343;2.675989;Koksijde;4.868780049161488
379531;AKROPOLIS I 0702;HOLIDAY_COTTAGE;ALBERT I LAAN;123;8670;Koksijde;1;6;;;51.13343;2.675989;Koksijde;4.868780049161488
345682;AKROPOLIS II 0604;HOLIDAY_COTTAGE;EUROPAPLEIN;6;8670;Koksijde;1;4;;;51.133783;2.675981;Koksijde;4.8987897363877995
379532;AKROPOLIS III 0506;HOLIDAY_COTTAGE;EUROPAPLEIN;9;8670;Koksijde;1;6;;;51.133798;2.67597;Koksijde;4.899596310665811
357634;akropolis.odk;HOLIDAY_COTTAGE;ALBERT I LAAN;121;8670;Koksijde;1;5;akropolis.verhuur@gmail.com;0496860192;51.133396;2.675875;Koksijde;4.860786745098983
382774;Al de Pirre;GENERIC_ROOMS;PIRRESTRAAT;55;9500;Geraardsbergen;1;2;HENK.LEROY@TELENET.BE;0032475627404;50.753011;3.928963;Sint-Pieters-Woluwe;34.7333846707506
222743;Al Mulino;HOTEL;MOLENVELDSTRAAT;7;3631;Maasmechelen;14;28;info@hotelalmulino.be;+32 89 73 08 40;50.939052;5.703566;Liège;30.780065319825
382800;Alain & Christine De Bondt Gillisjans;BED_AND_BREAKFAST;VIJVERSLAAN;63;1780;Wemmel;1;1;alaindb18@gmail.com;+32494574104;50.903567;4.306776;Neder-Over-Heembeek;5.858804624408141
218973;Alauda;HOTEL;TURNHOUTSEBAAN;28;2480;Dessel;16;32;info@alauda.be;+32 14 37 50 71;51.241643;5.112588;Arendonk;11.810256468241894
227289;Albastrosstraat 12-2e;HOLIDAY_COTTAGE;Albatrosstraat;12;8301;Knokke-Heist;1;5;verhuur@agencevandenbroucke.be;;51.34082192390063;3.242135984166541;Gent;45.56352067944292
221430;Albatros;GENERIC_TERRAIN;KONINKLIJKE BAAN;160;8434;Middelkerke;366;1430;info@albatrosaanzee.be;+32 58 23 39 63;51.153224;2.758296;Koksijde;10.67583405294221
228381;Albatros;BED_AND_BREAKFAST;ROBERT VANDAMMESTRAAT;219;8670;Koksijde;2;6;info@albatroskoksijde.be;+32 58 51 41 14;51.095323;2.618975;Koksijde;1.017718710570563
324907;Albatros;GENERIC_ROOMS;Donnylaan;13;8660;De Panne;1;2;laurens.deconinck@gmail.com;0468351085;51.09735806503671;2.585044369159815;Koksijde;3.283099632123381
216325;Albatros 01;HOLIDAY_COTTAGE;Jan Pootlaan;14;8670;Koksijde;1;6;info@immo-unico.be;+32 58 51 20 58;51.10768787415298;2.61220384520374;Koksijde;1.6360912573337667
219866;Albatros 01;HOLIDAY_COTTAGE;Victorlaan;1;8620;Nieuwpoort;1;6;servimo@era.be;+32 58 22 31 11;51.14170946310073;2.728317228774081;Koksijde;8.220874394245156
382097;Albatros 01.01;HOLIDAY_COTTAGE;MARKT;6;8420;De Haan;1;7;;;51.298903;3.079307;Koksijde;38.33888663023603
261174;ALBATROS 11-10;HOLIDAY_COTTAGE;A. Degreeflaan;5;8670;Koksijde;1;5;info@immoangelo.be;;51.1276254467261;2.65594985767371;Koksijde;3.5425074644163197
216233;ALBATROS 17;HOLIDAY_COTTAGE;A. Degreeflaan;5;8670;Koksijde;1;4;info@triton.be;+32 58 51 30 63;51.12761808251653;2.656035202340147;Koksijde;3.5446488163060828
219863;ALBATROS 27;HOLIDAY_COTTAGE;VICTORLAAN;1;8620;Nieuwpoort;1;4;servimo@era.be;+32 58 22 31 11;51.14071;2.729386;Koksijde;8.220279210719275
224161;Albatros 29;HOLIDAY_COTTAGE;Victorlaan;1;8620;Nieuwpoort;1;5;verhuur@ebima.be;+32 58 23 55 22;51.14170946310073;2.728317228774081;Koksijde;8.220874394245156
224162;Albatros 30;HOLIDAY_COTTAGE;Victorlaan;1;8620;Nieuwpoort;1;8;verhuur@ebima.be;+32 58 23 55 22;51.14170946310073;2.728317228774081;Koksijde;8.220874394245156
301553;Albatros 7;HOLIDAY_COTTAGE;ZEEDIJK;65-66;8370;Blankenberge;1;5;;;51.314388;3.120321;Koksijde;41.66999505601933
214846;ALBATROS A101/C1;HOLIDAY_COTTAGE;Albert I laan;236 A;8620;Nieuwpoort;1;6;marcvanexem@eecke.be;+32 58 23 31 90;51.14695170192881;2.712296230682247;Koksijde;7.711655093982129
300871;Albatros A2;HOLIDAY_COTTAGE;LICHTTORENPLEIN;16;8300;Knokke-Heist;1;4;;;51.353448;3.290783;Gent;44.00628934654904
303543;Albatros A302;HOLIDAY_COTTAGE;Albert I Laan;236;8620;Nieuwpoort;1;4;;;51.1460049670039;2.72765845565804;Koksijde;8.465049753748778
357236;Albatros AB B0;HOLIDAY_COTTAGE;GRACIALAAN;1;8420;De Haan;1;4;;;51.276838;3.031016;Koksijde;34.17107828465957
224880;Albatros ALBATROS 32;HOLIDAY_COTTAGE;Lichttorenplein;16;8300;Knokke-Heist;1;2;info@immomv.be;+32 50 61 49 49;51.35318350748328;3.290676515454765;Gent;43.99094625137646
303734;Albatros B1;HOLIDAY_COTTAGE;GRACIALAAN;1;8420;De Haan;1;4;;;51.276838;3.031016;Koksijde;34.17107828465957
220314;ALBATROS CD C2;HOLIDAY_COTTAGE;MERCATORLAAN;2;8420;De Haan;1;4;info@woestyn.be;+32 59 23 50 01;51.276438;3.031754;Koksijde;34.18771598673103
220315;ALBATROS CD D2;HOLIDAY_COTTAGE;Mercatorlaan;2;8420;De Haan;1;5;info@woestyn.be;+32 59 23 50 01;51.27671389453383;3.031545155964895;Koksijde;34.193378759124634
226126;Albergo 13-GV02;HOLIDAY_COTTAGE;A. Vanhouttelaan;13;8670;Koksijde;1;6;;;51.10954787453849;2.60875386230409;Koksijde;1.9519363636447933
265103;Albergo Cavalo;BED_AND_BREAKFAST;Warande;16;9982;Sint-Laureins;2;12;info@albergo-cavalo.be;+32 478 58 57 56;51.24656980350792;3.591686445529654;Gent;21.65447455937911
216960;Albert;HOLIDAY_COTTAGE;Zeedijk;512;8300;Knokke-Heist;1;6;info@agenceschmitz.be;+32 50 60 11 22;51.34910910538859;3.279622936285577;Gent;44.23092149477166
303052;Albert 01.01;HOLIDAY_COTTAGE;ALBERT I LAAN;19;8670;Koksijde;1;8;;;51.126728;2.663197;Koksijde;3.7301661602911476
211559;Albert 1;HOTEL;Koning Albert I-laan;2-4;8000;Brugge;13;35;info@hotelalbert1.be;+32 50 34 09 30;51.2011746218522;3.21783011426138;Poelkapelle;33.30732413382583
213260;Albert 1 0105(2105);HOLIDAY_COTTAGE;ZEELAAN;214;8660;De Panne;1;6;;+34 971 63 16 50;51.103104;2.590346;Koksijde;2.9268374788698663
250947;Albert 1 0303 (3303);HOLIDAY_COTTAGE;ZEELAAN;214;8660;De Panne;1;8;info@agencemulier.be;+32 58 41 17 70;51.103104;2.590346;Koksijde;2.9268374788698663
300603;Albert 1 0305 (2305);HOLIDAY_COTTAGE;ZEELAAN;214;8660;De Panne;1;4;;;51.103104;2.590346;Koksijde;2.9268374788698663
229787;Albert 1 0601 (3601);HOLIDAY_COTTAGE;ZEELAAN;214;8660;De Panne;1;6;info@agencemulier.be;+32 58 41 17 70;51.103104;2.590346;Koksijde;2.9268374788698663
301500;Albert 1 0702 (3702);HOLIDAY_COTTAGE;ZEELAAN;214;8660;De Panne;1;6;;;51.103104;2.590346;Koksijde;2.9268374788698663
214297;Albert 1 0703 (3703);HOLIDAY_COTTAGE;ZEELAAN;214;8660;De Panne;1;6;martinebeeckmans@skynet.be;+32 2 532 03 83;51.103104;2.590346;Koksijde;2.9268374788698663
229786;Albert 1 0802 (2802);HOLIDAY_COTTAGE;Zeelaan;214;8660;De Panne;1;6;info@agencemulier.be;+32 58 41 17 70;51.10326987407531;2.59065376580642;Koksijde;2.9079566888380555
250938;Albert 1 0902 (3902);HOLIDAY_COTTAGE;Zeelaan;214;8660;De Panne;1;6;info@agencemulier.be;+32 58 41 17 70;51.10326987407531;2.59065376580642;Koksijde;2.9079566888380555
222175;Albert 39;HOLIDAY_COTTAGE;Zeedijk-Albertstrand;512;8300;Knokke-Heist;1;4;;;51.3492487988911;3.27941520802564;Gent;44.252114599975926
226483;ALBERT 6A;HOLIDAY_COTTAGE;Albert I-Promenade;15;8400;Oostende;1;7;promenade@dermul.be;+32 59 55 10 68;51.23502106869606;2.919237774028992;Koksijde;25.12122501702484
221248;Albert ALBERT;HOLIDAY_COTTAGE;Albert I Laan;19;8670;Koksijde;1;8;info@littimmo.be;;51.12683650878802;2.662965781695475;Koksijde;3.730413908078217
214004;ALBERT DUMONT 0401;HOLIDAY_COTTAGE;A. Dumontlaan;10;8660;De Panne;1;4;info@acou.be;+32 58 41 28 33;51.1015844773155;2.59076070432134;Koksijde;2.8805879986314062
214005;ALBERT DUMONT 0402;HOLIDAY_COTTAGE;A. Dumontlaan;10;8660;De Panne;1;5;info@acou.be;+32 58 41 28 33;51.1015844773155;2.59076070432134;Koksijde;2.8805879986314062
223649;Albert Elisabeth 0005;HOLIDAY_COTTAGE;Zeedijk;138;8400;Oostende;1;6;info@immoleys.be;+32 59 50 64 27;51.2197417407642;2.886872606118241;Koksijde;22.292654773665827
223650;Albert Elisabeth 0136;HOLIDAY_COTTAGE;Zeedijk;138;8400;Oostende;1;4;info@immoleys.be;+32 59 50 64 27;51.2197417407642;2.886872606118241;Koksijde;22.292654773665827
302996;Albert Elisabeth 0197;HOLIDAY_COTTAGE;ZEEDIJK;138;8400;Oostende;1;6;;;51.219942;2.886672;Koksijde;22.29475669606535
223648;Albert Elisabeth 0210;HOLIDAY_COTTAGE;Zeedijk;138;8400;Oostende;1;6;info@immoleys.be;+32 59 50 64 27;51.2197417407642;2.886872606118241;Koksijde;22.292654773665827
228002;ALBERT ELISABETH 2/2C;HOLIDAY_COTTAGE;Zeedijk;138;8400;Oostende;1;4;mariakerke@dermul.be;+32 59 55 10 69;51.2197417407642;2.886872606118241;Koksijde;22.292654773665827
302344;Albert Elisabeth 2B;HOLIDAY_COTTAGE;ZEEDIJK;138;8400;Oostende;1;4;;;51.219942;2.886672;Koksijde;22.29475669606535
228003;ALBERT ELISABETH 4/4E;HOLIDAY_COTTAGE;Zeedijk;138;8400;Oostende;1;6;mariakerke@dermul.be;+32 59 55 10 69;51.2197417407642;2.886872606118241;Koksijde;22.292654773665827
214973;Albert Elisabeth 4/4F;HOLIDAY_COTTAGE;Zeedijk;138;8400;Oostende;1;6;mieke.vdb@base.be;+32 50 33 98 11;51.2197417407642;2.886872606118241;Koksijde;22.292654773665827
228004;Albert Elisabeth 5/5B;HOLIDAY_COTTAGE;Zeedijk;138;8400;Oostende;1;4;mariakerke@dermul.be;+32 59 55 10 69;51.2197417407642;2.886872606118241;Koksijde;22.292654773665827
228005;ALBERT ELISABETH 5/5C;HOLIDAY_COTTAGE;Zeedijk;138;8400;Oostende;1;4;mariakerke@dermul.be;+32 59 55 10 69;51.2197417407642;2.886872606118241;Koksijde;22.292654773665827
304212;Albert Elisabeth 5/5C;HOLIDAY_COTTAGE;ZEEDIJK;138;8400;Oostende;1;5;;;51.219942;2.886672;Koksijde;22.29475669606535
228006;ALBERT ELISABETH 5/5E;HOLIDAY_COTTAGE;Zeedijk;138;8400;Oostende;1;7;mariakerke@dermul.be;+32 59 55 10 69;51.2197417407642;2.886872606118241;Koksijde;22.292654773665827
228007;ALBERT ELISABETH 5/5H;HOLIDAY_COTTAGE;Zeedijk;138;8400;Oostende;1;7;mariakerke@dermul.be;+32 59 55 10 69;51.2197417407642;2.886872606118241;Koksijde;22.292654773665827
228008;Albert Elisabeth 7/7H;HOLIDAY_COTTAGE;Zeedijk;138;8400;Oostende;1;5;mariakerke@dermul.be;+32 59 55 10 69;51.2197417407642;2.886872606118241;Koksijde;22.292654773665827
378470;Albert Heijn 30/15;HOLIDAY_COTTAGE;DUINENWATER;6;8300;Knokke-Heist;1;4;jv.supply81@gmail.com;0499549340;;;Herbeumont;5540.271330169284
302868;Albert I;HOLIDAY_COTTAGE;Zeelaan ;214;8660;De Panne;1;8;;;51.1032769404517;2.59056509984286;Koksijde;2.914216074972579
379718;Albert I 0301;HOLIDAY_COTTAGE;ZEELAAN;214;8660;De Panne;1;8;;;51.103104;2.590346;Koksijde;2.9268374788698663
383724;Albert I 0304;HOLIDAY_COTTAGE;OORLOGSINVALIDENLAAN;2;8434;Middelkerke;1;4;;;51.170071;2.775965;Koksijde;12.776203359440974
384215;Albert I 0804;HOLIDAY_COTTAGE;Zeelaan;214;8660;De Panne;1;6;info@agencemulier.be;+3258411770;;;Herbeumont;5540.271330169284
227500;Albert I 1B;HOLIDAY_COTTAGE;August Beernaertstraat;3;8301;Knokke-Heist;1;2;chris@abimo-dewispelaere.be;+32 50 51 39 94;51.34159736465575;3.244371121303296;Gent;45.5006896756569
227498;ALBERT I 6C;HOLIDAY_COTTAGE;AUG.BEERNAERTST;3;8301;Knokke-Heist;1;7;chris@abimo-dewispelaere.be;+32 50 51 39 94;51.34159736465575;3.244371121303296;Gent;45.5006896756569
380431;ALBERT I A4;HOLIDAY_COTTAGE;ALBERT I-PROMENADE;15;8400;Oostende;1;6;;;51.235207;2.919265;Koksijde;25.135121971051095
379186;Albert I ALBE0702;HOLIDAY_COTTAGE;ZEELAAN;214;8660;De Panne;1;8;;;51.103104;2.590346;Koksijde;2.9268374788698663
228589;Albert I app. 0201;HOLIDAY_COTTAGE;Albert I laan;102-104;8620;Nieuwpoort;1;5;;;51.1501936787479;2.721494547659141;Koksijde;8.430209130438998
221596;Albert II;HOTEL;VLAANDERENSTRAAT;42;8400;Oostende;78;182;info@hotelalbert2.be;+32 59 80 80 00;51.233883;2.915138;Koksijde;24.81610064483342
379681;Albert II 0301 336;HOLIDAY_COTTAGE;KONINKLIJKE BAAN;117;8670;Koksijde;1;6;;;51.120549;2.635337;Koksijde;2.337799434567723
367857;Albert II 0401 360;HOLIDAY_COTTAGE;KONINKLIJKE BAAN;117;8670;Koksijde;1;6;;;51.120549;2.635337;Koksijde;2.337799434567723
384483;Albertlaan HUIS;HOLIDAY_COTTAGE;ALBERTLAAN;39;8300;Knokke-Heist;1;6;;;51.342245;3.290197;Gent;43.1709607849816
229274;Albertushof;HOLIDAY_COTTAGE;PATERSSTRAAT;7;8900;Ieper;1;7;info@albertushof.be;+32 477 43 11 74;50.849618;2.882984;Poelkapelle;12.316504617905968
226610;Albion Hotel;HOTEL;SINT-JACOBSSTRAAT;28;8900;Ieper;32;64;info@albionhotel.be;+32 57 20 02 20;50.849735;2.88967;Poelkapelle;12.072943926674514
216042;ALCATAN;HOLIDAY_COTTAGE;Duinkerkelaan;2;8660;De Panne;1;6;info@agencerembrandt.be;+32 58 41 33 55;51.10286450132099;2.590381706512416;Koksijde;2.9209893308164956
220561;Alcatan 0301;HOLIDAY_COTTAGE;Duinkerkelaan ;2;8420;De Haan;1;6;agence@driemo.be;;51.267720145548;3.01449149416862;Koksijde;32.64480891999221
214313;Alcatan 0401(2402B);HOLIDAY_COTTAGE;DUINKERKELAAN;2;8660;De Panne;1;6;;+32 55 31 59 83;51.102833;2.590583;Koksijde;2.9065686522364906
224189;ALCATAN ALCA0301;HOLIDAY_COTTAGE;DUINKERKELAAN;2;8660;De Panne;1;6;agence@driemo.be;+3258415136;51.102833;2.590583;Koksijde;2.9065686522364906
384255;Alda Schoones;HOLIDAY_COTTAGE;HEUFKENSSTRAAT;163;9630;Zwalm;1;8;clausinge@skynet.be;055463958;50.874058;3.697854;Gent;22.55238204641813
275892;Alden Biesen;GENERIC_ROOMS;Kasteelstraat;6;3740;Bilzen;;58;lies.kerkhofs@cjsm.vlaanderen.be;+32 89 51 93 40;50.84185819410822;5.521668837600348;Liège;18.051089872163598
226800;Aldeneikerhoeve;HOLIDAY_COTTAGE;ALDENEIKERWEG;47;3680;Maaseik;1;4;colson.marc@telenet.be;+32 89 56 42 88;51.099826;5.803794;Lommel;33.89589949776773
298365;aldis;HOLIDAY_COTTAGE;KONINGIN ASTRIDLAAN;11;8400;Oostende;1;6;verbruggen.nancy68@gmail.com;+32 16 65 02 35;51.224491;2.897635;Koksijde;23.21126862390127
384662;Aldis 0034;HOLIDAY_COTTAGE;KONINGIN ASTRIDLAAN;15;8400;Oostende;1;2;;;51.224491;2.897635;Koksijde;23.21126862390127
261425;Aldis 0071;HOLIDAY_COTTAGE;Kon.Astridlaan;11-15;8400;Oostende;1;6;verhuur@immoleys.be;+32 59 50 64 27;51.2245660828418;2.897253297263731;Koksijde;23.194871459293285
224897;Aldis 0081;HOLIDAY_COTTAGE;Koningin Astridlaan;11-15;8400;Oostende;1;4;verhuur@immoleys.be;+32 59 50 64 27;51.2245660828418;2.897253297263731;Koksijde;23.194871459293285
224898;Aldis 0099;HOLIDAY_COTTAGE;Koningin Astridlaan;11;8400;Oostende;1;4;verhuur@immoleys.be;+32 59 50 64 27;51.2245660828418;2.897253297263731;Koksijde;23.194871459293285
224902;Aldis 0125;HOLIDAY_COTTAGE;Koningin Astridlaan;11-15;8400;Oostende;1;2;verhuur@immoleys.be;+32 59 50 64 27;51.2245660828418;2.897253297263731;Koksijde;23.194871459293285
298889;Aldis 0131;HOLIDAY_COTTAGE;Koningin Astridlaan;11-15;8400;Oostende;1;4;;;51.2246234606694;2.89748241740508;Koksijde;23.21151969678489
224899;Aldis 0139;HOLIDAY_COTTAGE;Koningin Astridlaan;11;8400;Oostende;1;4;verhuur@immoleys.be;+32 59 50 64 27;51.2245660828418;2.897253297263731;Koksijde;23.194871459293285
224900;Aldis 0147;HOLIDAY_COTTAGE;Koningin Astridlaan;11;8400;Oostende;1;4;verhuur@immoleys.be;+32 59 50 64 27;51.2245660828418;2.897253297263731;Koksijde;23.194871459293285
378580;Aldis 0189;HOLIDAY_COTTAGE;KONINGIN ASTRIDLAAN;11;8400;Oostende;1;4;;;51.224491;2.897635;Koksijde;23.21126862390127
224901;Aldis 0243;HOLIDAY_COTTAGE;Koningin Astridlaan;11-15;8400;Oostende;1;4;verhuur@immoleys.be;+32 59 50 64 27;51.2245660828418;2.897253297263731;Koksijde;23.194871459293285
303754;Aldis 0261;HOLIDAY_COTTAGE;Koningin Astridlaan;42309;8400;Oostende;1;6;;;51.2224433527008;2.89519501579818;Koksijde;22.93867402677392
218880;Aldis 151;HOLIDAY_COTTAGE;Koningin Astridlaan;15;8400;Oostende;1;2;info@lecomte.be;;51.22452786484723;2.897115058594462;Koksijde;23.184587863405888
220837;ALDIS 3 3/334M;HOLIDAY_COTTAGE;Koningin Astridlaan;15;8400;Oostende;1;6;mariakerke@dermul.be;+32 59 55 10 69;51.2245660828418;2.897253297263731;Koksijde;23.194871459293285
218881;Aldis 374;HOLIDAY_COTTAGE;Koningin Astridlaan;15;8400;Oostende;1;4;info@lecomte.be;;51.22452786484723;2.897115058594462;Koksijde;23.184587863405888
218882;Aldis 442P;HOLIDAY_COTTAGE;Koningin Astridlaan;15;8400;Oostende;1;4;info@lecomte.be;;51.22452786484723;2.897115058594462;Koksijde;23.184587863405888
301355;Aldis 454;HOLIDAY_COTTAGE;KONINGIN ASTRIDLAAN;15;8400;Oostende;1;4;;;51.224488;2.897629;Koksijde;23.210733113359577
220838;ALDIS2 1 / 414S;HOLIDAY_COTTAGE;Koningin Astridlaan;15;8400;Oostende;1;6;mariakerke@dermul.be;+32 59 55 10 69;51.2245660828418;2.897253297263731;Koksijde;23.194871459293285
219145;Aldrinne;HOLIDAY_COTTAGE;DAHLIALAAN;6;2910;Essen;1;6;christina.van.der.sanden@skynet.be;+32 3 663 35 63;51.434466;4.445662;Kapellen;13.797744746298326
211535;Alegria Brugge;HOTEL;SINT-JAKOBSSTRAAT;34;8000;Brugge;14;30;alegriahotel@me.com;+32 50 33 09 37;51.209976;3.221521;Poelkapelle;34.27939919982668
221896;Alegria Ieper;BED_AND_BREAKFAST;MEENSEWEG;261A;8900;Ieper;5;10;info@alegria-bb.be;+32 57 21 41 61;50.849211;2.911868;Poelkapelle;11.46136097436997
218813;Alegria Oostende;HOLIDAY_COTTAGE;SCHIPPERSSTRAAT;40;8400;Oostende;1;8;;;51.233024;2.920876;Koksijde;25.08131041801295
384454;Alegria Oostende;HOLIDAY_COTTAGE;SCHIPPERSSTRAAT;40;8400;Oostende;1;8;;;51.233024;2.920876;Koksijde;25.08131041801295
298531;Alena Villa;GENERIC_ROOMS;VELDSTRAAT;67;8200;Brugge;2;6;alenavilla@telenet.be;+32 50 38 75 80;51.193674;3.211362;Poelkapelle;32.35942724995226
346057;Alesia AT Friday;GENERIC_ROOMS;LEEUWENSTRAAT;20;2000;Antwerpen;1;4;info@bnbantwerp.com;+32496266023;51.218494;4.399288;Deurne;4.113367516269013
213728;ALEXANDER 0001(001);HOLIDAY_COTTAGE;Zeedijk-De Haan;4;8420;De Haan;1;6;info@ducoq.be;+32 59 25 52 00;51.2769954777222;3.02767244978979;Koksijde;33.99053062602335
213729;ALEXANDER 0101(002);HOLIDAY_COTTAGE;Zeedijk-De Haan;4;8420;De Haan;1;4;info@ducoq.be;+32 59 25 52 00;51.2769954777222;3.02767244978979;Koksijde;33.99053062602335
380839;ALEXANDER 0202;HOLIDAY_COTTAGE;ZEEDIJK-DE HAAN;4;8420;De Haan;1;4;;;51.277111;3.02754;Koksijde;33.99042565449842
216902;Alexandra;HOLIDAY_COTTAGE;Zonnelaan;15;8300;Knokke-Heist;1;4;david@alexdewulf.be;+32 50 62 30 00;51.34921848214082;3.280385718778714;Gent;44.200674758008994
301444;Alexandra;HOLIDAY_COTTAGE;LEOPOLD I ESPLANADE;5;8660;De Panne;1;6;;;51.098416;2.58079;Koksijde;3.5737706674861167
217072;Alexandra 00.01;HOLIDAY_COTTAGE;Phillippartpad;2;8301;Knokke-Heist;1;6;david@alexdewulf.be;;51.34506401269198;3.265091818325765;Gent;44.6695396065844
304353;Alexandra 0301;HOLIDAY_COTTAGE;OORLOGSINVALIDENLAAN;27;8434;Middelkerke;1;6;;;51.169258;2.773788;Koksijde;12.600461172609991
218114;Alexandra 0-W3;HOLIDAY_COTTAGE;Leopold I Esplanade;5;8660;De Panne;1;6;info@agenceleroy.be;+32 58 42 06 06;51.09828152060189;2.580979539857168;Koksijde;3.561119584495393
216901;Alexandra 11;HOLIDAY_COTTAGE;Zonnelaan;15;8300;Knokke-Heist;1;6;;;51.34921848214082;3.280385718778714;Gent;44.200674758008994
217071;Alexandra 2.0;HOLIDAY_COTTAGE;Phillippartpad;2;8301;Knokke-Heist;1;6;david@alexdewulf.be;;51.34506401269198;3.265091818325765;Gent;44.6695396065844
216639;ALEXANDRA 20104 WESTENDE;HOLIDAY_COTTAGE;Oorlogsinvalidenlaan;27;8434;Middelkerke;1;5;info@agem.be;+32 59 30 17 79;51.16914333412497;2.773968938528308;Koksijde;12.602635274140269
213967;ALEXANDRA 702;HOLIDAY_COTTAGE;LEOPOLD I ESPLANADE;5;8660;De Panne;1;6;info@dunimmo.be;+32 58 41 12 08;51.098416;2.58079;Koksijde;3.5737706674861167
213968;ALEXANDRA 806;HOLIDAY_COTTAGE;LEOPOLD I ESPLANADE;5;8660;De Panne;1;4;info@dunimmo.be;+32 58 41 12 08;51.098416;2.58079;Koksijde;3.5737706674861167
261163;Alexandra ALEX 301;HOLIDAY_COTTAGE;Oorlogsinvalidenlaan;27;8434;Middelkerke;1;6;info@immo-moenaert.be;;51.16926313284883;2.774069802898923;Koksijde;12.616377727275248
380646;Alexandra ALEX0902;HOLIDAY_COTTAGE;LEOPOLD I ESPLANADE;5;8660;De Panne;1;6;;;51.098416;2.58079;Koksijde;3.5737706674861167
213971;ALEXANDRA ALEX603;HOLIDAY_COTTAGE;LEOPOLD I ESPLANADE;5;8660;De Panne;1;4;info@agencerembrandt.be;+32 58 41 33 55;51.098416;2.58079;Koksijde;3.5737706674861167
382303;Alexine 0601;GENERIC_ROOMS;zeedijk;418;8670;Koksijde;1;4;;;;;Herbeumont;5540.271330169284
251077;Alexis;BED_AND_BREAKFAST;Alexis Dallièrestraat;12;9050;Gent;1;3;peter.aerts2@telenet.be;;51.03966045665616;3.746550202954745;Gent;3.9909698312588926
230332;Alexy 0201;HOLIDAY_COTTAGE;Zeedijk;376;8670;Koksijde;1;4;info@immothalassa.be;;51.12295954652745;2.640168214450145;Koksijde;2.6584537391828773
226757;Alexy 401;HOLIDAY_COTTAGE;Zeedijk;376;8670;Koksijde;1;4;koksijde@immo-europe.be;;51.12295954652745;2.640168214450145;Koksijde;2.6584537391828773
379043;ALFA 2;GENERIC_ROOMS;SLUIZENKAAI;25;8930;Menen;1;4;info@alfa-trips.be;0032475701503;50.7911954867;3.1214719648;Mouscron;7.878095491900286
229101;Alfa Inn;HOTEL;KERKSTRAAT;92;8370;Blankenberge;82;193;info@alfa-inn.com;+32 50 41 81 72;51.31369;3.130999;Koksijde;42.23996635448835
276891;Alflex Bed & Badhuis;BED_AND_BREAKFAST;DIKSMUIDSEWEG;145;8900;Ieper;1;2;info@alflex.be;+32 57 20 27 17;50.866978;2.875078;Poelkapelle;11.031755094537381
224440;Alfonsinehoeve 1;HOLIDAY_COTTAGE;RAUWSTRAAT;2;3870;Heers;1;4;alfonsinehoeve@gmail.com;+32 11 48 54 68;50.754178;5.331525;Sint-Truiden;12.435681613199542
224441;Alfonsinehoeve 2;HOLIDAY_COTTAGE;RAUWSTRAAT;2;3870;Heers;1;4;alfonsinehoeve@gmail.com;+32 11 48 54 68;50.754178;5.331525;Sint-Truiden;12.435681613199542
224442;Alfonsinehoeve 3;HOLIDAY_COTTAGE;Rauwstraat;2;3870;Heers;1;4;alfonsinehoeve@gmail.com;+32 11 48 54 68;50.75413954015946;5.33170309286333;Sint-Truiden;12.448785530366568
277137;Alfzotmolen;BED_AND_BREAKFAST;WELLINGSTRAAT;104;8730;Beernem;1;6;info@alfzotmolen.be;+32 498 40 51 96;51.128864;3.309915;Gent;30.59844898375658
217521;Algarve GV.03;HOLIDAY_COTTAGE;Wulpstraat;6;8670;Koksijde;1;6;info@ultimmo.be;;51.11294940844704;2.618625104457052;Koksijde;1.742123697532831
212127;Alice & Anais;BED_AND_BREAKFAST;WERKHUISSTRAAT;1;8000;Brugge;2;6;info@alice-anais.be;;51.203867;3.228346;Poelkapelle;33.94808411017444
230325;Alice House;HOLIDAY_COTTAGE;VANDENPEEREBOOMPLEIN;49;8900;Ieper;1;6;info@alicehouse.be;;50.852365;2.883495;Poelkapelle;12.035558182148481
221664;Alicia;HOLIDAY_COTTAGE;VOSSESLAG;106;8420;De Haan;1;3;alicia.brutain@gmail.com;;51.260623;3.007405;Koksijde;31.790156565368555
226649;Alios 15;HOLIDAY_COTTAGE;Van Iseghemlaan;103;8400;Oostende;1;4;info@lecomte.be;+32 59 70 51 05;51.23076681976995;2.911798629714484;Koksijde;24.42184320231451
227913;Alizee;HOTEL;TOLLENSLAAN;1;8420;De Haan;11;24;info@hotelalizee.be;+32 59 23 34 75;51.278356;3.034853;Koksijde;34.48724772092574
221564;All Green;HOLIDAY_COTTAGE;HELMWEG;21;8300;Knokke-Heist;1;8;info@dirkwillemyns.be;;51.342384;3.294927;Gent;42.94244579726281
212028;All Inn;HOLIDAY_COTTAGE;Dahliastraat;21;9000;Gent;1;4;info@all-inn.be;;51.06986270105818;3.707041828758383;Gent;2.2725170532961494
222284;all sun 0104;HOLIDAY_COTTAGE;Flandrialaan;11;8434;Middelkerke;1;6;agencemuyle@skynet.be;+32 59 30 04 76;51.16880697021066;2.771210648635249;Koksijde;12.427550331301989
304354;All Sun 0104;HOLIDAY_COTTAGE;FLANDRIALAAN;11;8434;Middelkerke;1;6;;;51.168706;2.770973;Koksijde;12.407541225429494
382741;Allegambe's Goed;HOLIDAY_COTTAGE;Brugse Heirweg;213;8211;Zedelgem;1;20;info@allegambesgoed.be;+3247056452;;;Herbeumont;5540.271330169284
379825;Allegambe's Goed;BED_AND_BREAKFAST;Brugse Heirweg ;213;8211;Zedelgem;8;20;info@allegambesgoed.be;+32470563452;;;Herbeumont;5540.271330169284
384636;Allegra-Nova;GENERIC_ROOMS;Ramen;22;9000;Gent;1;4;info@allegra-nova.be;0475960737;;;Herbeumont;5540.271330169284
211321;Allegra-Nova;BED_AND_BREAKFAST;RAMEN;24;9000;Gent;2;8;info@allegra-nova.be;;51.055814;3.716149;Gent;2.656272567005026
214248;Allegria;HOLIDAY_COTTAGE;NIEUWPOORTLAAN;144;8660;De Panne;1;6;sadi.leroy@skynet.be;;51.105164;2.599383;Koksijde;2.349858925318408
218702;Allegro ALLEGRO 2D;HOLIDAY_COTTAGE;Van Bunnenlaan;20;8300;Knokke-Heist;1;6;info@immomv.be;+32 50 61 49 49;51.35196392980454;3.290715384734491;Gent;43.89401089936131
299174;Alliance;BED_AND_BREAKFAST;KLEINE KUIPERSSTRAAT;2;8000;Brugge;1;2;inge.serruys@telenet.be;+32 495 38 21 23;51.208138;3.216658;Poelkapelle;33.93033213661739
223692;Alliance Ieper Centrum;HOTEL;D'HONDTSTRAAT;19;8900;Ieper;18;44;info@alliancehotel.be;+32 57 38 88 05;50.850234;2.887437;Poelkapelle;12.100610523794336
261535;Allo Allo;GENERIC_ROOMS;ELVERDINGSEWEG;30;8970;Poperinge;3;6;info@AlloAlloBenB.be;;50.878079;2.776553;Poelkapelle;15.626182258682263
223655;Almaro;HOLIDAY_COTTAGE;LAMMEKENSLAAN;10;8300;Knokke-Heist;1;8;info@dirkwillemyns.be;;51.349576;3.297331;Gent;43.37899746351733
224971;Almo 0201;HOLIDAY_COTTAGE;Zeedijk;132-133;8430;Middelkerke;1;3;info@sissau.be;;51.1868265656963;2.81224754541002;Koksijde;15.92374124627622
213211;Almo 0402;HOLIDAY_COTTAGE;Zeedijk;132-133;8430;Middelkerke;1;6;;;51.18680661931994;2.812336473287679;Koksijde;15.927328941571023
225472;Almo 0901;HOLIDAY_COTTAGE;Zeedijk;132-133;8430;Middelkerke;1;3;info@sissau.be;+32475807730;51.1868265656963;2.81224754541002;Koksijde;15.92374124627622
218775;Almohades 4-9;HOLIDAY_COTTAGE;Ankerweg;5;8660;De Panne;1;6;info@agenceinterservice.be;+32 58 41 52 42;51.1026491006693;2.589566334329564;Koksijde;2.9749107071496566
302873;Alpha;HOLIDAY_COTTAGE;Zeedijk ;50;8660;De Panne;1;6;;;51.1041663065132;2.59279334328029;Koksijde;2.7758683922813634
228286;Alpha 0101 (2103);HOLIDAY_COTTAGE;Zeedijk;50;8660;De Panne;1;7;info@agencemulier.be;+32 58 41 17 70;51.10416054261043;2.592881452699752;Koksijde;2.769682849294188
228281;Alpha 0201 (2206);HOLIDAY_COTTAGE;Zeedijk;50;8660;De Panne;1;4;info@agencemulier.be;+32 58 41 17 70;51.10416054261043;2.592881452699752;Koksijde;2.769682849294188
228282;Alpha 0202 (S207);HOLIDAY_COTTAGE;ZEEDIJK;50;8660;De Panne;1;4;info@agencemulier.be;+32 58 41 17 70;51.104315;2.592654;Koksijde;2.7884917112011034
345683;ALPHA 0301;HOLIDAY_COTTAGE;ALBERT I LAAN;94;8670;Koksijde;1;4;;;51.132685;2.673617;Koksijde;4.699813885355799
228285;Alpha 0301 (2309);HOLIDAY_COTTAGE;ZEEDIJK;50;8660;De Panne;1;6;info@agencemulier.be;+32 58 41 17 70;51.104315;2.592654;Koksijde;2.7884917112011034
301311;ALPHA 0302;HOLIDAY_COTTAGE;ALBERT I LAAN;94;8670;Koksijde;1;4;;;51.132685;2.673617;Koksijde;4.699813885355799
303000;Alpha 0401 (2412);HOLIDAY_COTTAGE;Zeedijk ;50;8660;De Panne;1;6;;;51.1041663065132;2.59279334328029;Koksijde;2.7758683922813634
217574;ALPHA 0501;HOLIDAY_COTTAGE;Albert I Laan;94;8670;Koksijde;1;4;immo.angelo@skynet.be;+32 58 51 14 32;51.1324825707616;2.67384300808016;Koksijde;4.6921513231252305
228283;Alpha 0502 (S516);HOLIDAY_COTTAGE;Zeedijk;50;8660;De Panne;1;4;info@agencemulier.be;+32 58 41 17 70;51.10416054261043;2.592881452699752;Koksijde;2.769682849294188
228284;Alpha 0603 (2620);HOLIDAY_COTTAGE;Zeedijk;50;8660;De Panne;1;6;info@agencemulier.be;+32 58 41 17 70;51.10416054261043;2.592881452699752;Koksijde;2.769682849294188
212939;Alpha 0701 (2721);HOLIDAY_COTTAGE;Zeedijk;50;8660;De Panne;1;6;;;51.10416054261043;2.592881452699752;Koksijde;2.769682849294188
228287;Alpha 0702 (S722);HOLIDAY_COTTAGE;ZEEDIJK;50;8660;De Panne;1;5;info@agencemulier.be;+32 58 41 17 70;51.104315;2.592654;Koksijde;2.7884917112011034
228280;Alpha 0801 (2824);HOLIDAY_COTTAGE;ZEEDIJK;50;8660;De Panne;1;6;info@agencemulier.be;+32 58 41 17 70;51.104315;2.592654;Koksijde;2.7884917112011034
301446;Alpha 1;HOLIDAY_COTTAGE;ZEEDIJK-DUINBERGEN;327;8301;Knokke-Heist;1;6;;;51.344353;3.257142;Gent;45.02992278758133
300617;Alpha 1ste;HOLIDAY_COTTAGE;Zeedijk-Knokke;327;8300;Knokke-Heist;1;6;;;51.3528107591302;3.28692796735617;Gent;44.14864388767231
215126;ALPHA 303;HOLIDAY_COTTAGE;Zeedijk;50;8660;De Panne;1;6;info@acou.be;+32 58 41 28 33;51.10416054261043;2.592881452699752;Koksijde;2.769682849294188
325045;Alpha 701;HOLIDAY_COTTAGE;ZEEDIJK-DUINBERGEN;327;8301;Knokke-Heist;1;6;;;51.344353;3.257142;Gent;45.02992278758133
325046;Alpha 8;HOLIDAY_COTTAGE;ZEEDIJK-DUINBERGEN;327;8301;Knokke-Heist;1;6;;;51.344353;3.257142;Gent;45.02992278758133
379719;ALPHA ALPH0303;HOLIDAY_COTTAGE;ZEEDIJK;50;8660;De Panne;1;6;;;51.104315;2.592654;Koksijde;2.7884917112011034
383316;Alpha Appartement 1;HOLIDAY_COTTAGE;Leuvensestraat;95;3300;Tienen;1;4;info@alphahotel.be;+32 16 82 28 00;50.809696;4.932133;Jodoigne;11.175901294805707
383317;Alpha Appartement 2;HOLIDAY_COTTAGE;Leuvensestraat;95;3300;Tienen;1;4;info@alphahotel.be;+32 16 82 28 00;50.809696;4.932133;Jodoigne;11.175901294805707
383318;Alpha Appartement 3;HOLIDAY_COTTAGE;Leuvensestraat;95;3300;Tienen;1;3;info@alphahotel.be;+32 16 82 28 00;50.809696;4.932133;Jodoigne;11.175901294805707
383319;Alpha Appartement 4;HOLIDAY_COTTAGE;Leuvensestraat;95;3300;Tienen;1;5;info@alphahotel.be;+32 16 82 28 00;50.809696;4.932133;Jodoigne;11.175901294805707
212412;Alpha Hotel;HOTEL;LEUVENSESTRAAT;95;3300;Tienen;17;34;info@alphahotel.be;+32 16 82 28 00;50.809696;4.932133;Jodoigne;11.175901294805707
220776;Alpha Hotel Oostende;HOTEL;LOUISASTRAAT;18;8400;Oostende;17;45;info@alpha-hotel.be;+32 59 50 14 24;51.233632;2.916749;Koksijde;24.88950149286853
211441;Alphabed;HOLIDAY_ACCOMMODATION;JAN PALFIJNSTRAAT;26;9000;Gent;5;10;info@alphabed.be;;51.054015;3.729964;Gent;2.4249094959607715
357358;Alsemkruidje;BED_AND_BREAKFAST;Duisbeke;12;9700;Oudenaarde;2;6;info@alsemkruidje.eu;+32468067374;50.862446;3.678939;Gent;24.02928642108163
219668;Alsput;HOTEL;HOLLESTRAAT;108;1500;Halle;7;14;mieke@alsput.com;+32 2 356 76 47;50.750375;4.231308;Sint-Pieters-Woluwe;15.014342983952783
213518;Alta Mira a3;HOLIDAY_COTTAGE;Zeedijk;164;8370;Blankenberge;1;6;info@agence-lefebvre.be;+32 50 41 22 89;51.31713041421423;3.133157814975687;Koksijde;42.57990031854481
228861;Alta Ripa;GENERIC_ROOMS;DOORNIKSESTEENWEG;357;8582;Avelgem;9;18;info@alta-ripa.be;+32 56 64 48 10;50.757044;3.430883;Mouscron;16.34540715690645
218400;Altamira 2;HOLIDAY_COTTAGE;Zeedijk;160;8430;Middelkerke;1;6;info@becue.be;+32 59 30 13 62;51.18559423465955;2.809494135123542;Koksijde;15.68754829555261
218401;Altamira 3;HOLIDAY_COTTAGE;Zeedijk;160;8430;Middelkerke;1;4;info@becue.be;+32 59 30 13 62;51.18559423465955;2.809494135123542;Koksijde;15.68754829555261
212665;Alta-Mira 3/A;HOLIDAY_COTTAGE;Duinendreef;2;8301;Knokke-Heist;1;6;;;51.34258805170499;3.258353005236423;Gent;44.83670579334126
218399;Altamira GVL;HOLIDAY_COTTAGE;Zeedijk;160;8430;Middelkerke;1;6;info@becue.be;+32 59 30 13 62;51.18559423465955;2.809494135123542;Koksijde;15.68754829555261
384628;Altegaar;HOLIDAY_COTTAGE;PROVINCIEBAAN;315;9620;Zottegem;1;13;info@altegaar.be;0478575902;50.886459;3.770485;Gent;21.113598887200673
223238;Altijd zon aan zee;HOLIDAY_COTTAGE;GROENENDIJKSTRAAT;14;8450;Bredene;1;7;info@altijdzonaanzee.be;+32 477 43 35 33;51.241337;2.944716;Koksijde;26.97233588889662
357588;Alto De Mar 34;HOLIDAY_COTTAGE;MAJOOR QUAILLESTRAAT;6;8301;Knokke-Heist;1;2;;;51.345702;3.263373;Gent;44.80601562555594
303983;Alto De Mar 43;HOLIDAY_COTTAGE;MAJOOR QUAILLESTRAAT;6;8301;Knokke-Heist;1;4;;;51.345702;3.263373;Gent;44.80601562555594
223654;Alto De Mar 61;HOLIDAY_COTTAGE;Majoor Quaillestraat;61;8301;Knokke-Heist;1;5;agence@immo-woestyn.be;;51.3451719246694;3.26335639108065;Gent;44.76742397921604
357589;Alto De Mar 71;HOLIDAY_COTTAGE;MAJOOR QUAILLESTRAAT;6;8301;Knokke-Heist;1;6;;;51.345702;3.263373;Gent;44.80601562555594
216941;Alto de Mar I 92;HOLIDAY_COTTAGE;Majoor Quaillestraat;6;8301;Knokke-Heist;1;4;info@knokkehomes.be;050760760;51.34563573028113;3.263231934656432;Gent;44.80838453423745
215411;Alto De Mar II 35;HOLIDAY_COTTAGE;M. Cuaillestraat;4;8301;Knokke-Heist;1;8;conny.claeys@groep-cauwe.be;+32 50 51 07 01;51.34580831359208;3.263135547963357;Gent;44.82622432062505
356472;Alury;BED_AND_BREAKFAST;Zandstraat;109;3550;Heusden-Zolder;4;12;info@alury.be;+32475306205;50.98375;5.289235;Zoutleeuw;20.967429543758467
229067;Alva 02/02.01;HOLIDAY_COTTAGE;Zeedijk;67;8620;Nieuwpoort;1;6;marnix.rathe@immostrand.be;+32 58 23 88 84;51.14708671364853;2.7122878716552;Koksijde;7.721478081985368
302348;Alva 201;HOLIDAY_COTTAGE;ZEEDIJK;67;8620;Nieuwpoort;1;6;;;51.147593;2.712377;Koksijde;7.764590422063414
345814;Alva 801;HOLIDAY_COTTAGE;ZEEDIJK;67;8620;Nieuwpoort;1;6;;;51.147593;2.712377;Koksijde;7.764590422063414
301071;Alver 10;HOLIDAY_COTTAGE;VICTORLAAN;1;8620;Nieuwpoort;1;6;verhuur@ebima.be;;51.14071;2.729386;Koksijde;8.220279210719275
380276;ALVER 15;HOLIDAY_COTTAGE;VICTORLAAN;1;8620;Nieuwpoort;1;8;;;51.14071;2.729386;Koksijde;8.220279210719275
345817;Alver 26;HOLIDAY_COTTAGE;VICTORLAAN;1;8620;Nieuwpoort;1;4;;;51.14071;2.729386;Koksijde;8.220279210719275
226787;Alver 3;HOLIDAY_COTTAGE;Victorlaan;1;8620;Nieuwpoort;1;5;verhuur@ebima.be;+32 58 23 55 22;51.14170946310073;2.728317228774081;Koksijde;8.220874394245156
226786;Alver 7 ALVER 7;HOLIDAY_COTTAGE;Victorlaan;1;8620;Nieuwpoort;1;6;verhuur@ebima.be;+32 58 23 55 22;51.14170946310073;2.728317228774081;Koksijde;8.220874394245156
346392;Alvolas;HOLIDAY_COTTAGE;ZEEDIJK;163;8400;Oostende;1;4;hindryckxnicole@telenet.be;0486391516;51.217602;2.881469;Koksijde;21.84773216753075
215793;Alzon GLV;HOLIDAY_COTTAGE;KERVIJNLAAN;2;8420;De Haan;1;8;deroeck@era.be;+32 50 42 42 24;51.298017;3.080429;Koksijde;38.34633428482782
211703;AM/PM;BED_AND_BREAKFAST;SINGEL;10;8200;Brugge;4;10;info@bruges-bedandbreakfast.com;;51.203346;3.212032;Poelkapelle;33.30690154373197
287238;Amaaj;BED_AND_BREAKFAST;Artsen zonder Grenzenstraat;21;2600;Antwerpen;1;2;info@amaaj.be;;51.1999135719824;4.42289519401677;Deurne;2.680581323617317
265062;Amadee;HOLIDAY_COTTAGE;KORTESTRAAT;4;8980;Zonnebeke;1;10;info@amadee.be;;50.808314;2.979075;Poelkapelle;15.212519239110678
223580;Amadeus;HOLIDAY_COTTAGE;Hendrik Consciencelaan;1;8660;De Panne;1;4;agence@driemo.be;;51.0981619178831;2.578997435974908;Koksijde;3.7004176312023573
223579;Amadeus;HOLIDAY_COTTAGE;Hendrik Consciencelaan;1;8660;De Panne;1;4;agence@driemo.be;;51.0981619178831;2.578997435974908;Koksijde;3.7004176312023573
216631;amadeus 0001;HOLIDAY_COTTAGE;Wulpenlaan;10;8430;Middelkerke;1;4;vakanties@aclvb.be;+3292225751;51.17309438228208;2.781037612344325;Koksijde;13.262737459856638
216632;Amadeus 0002;HOLIDAY_COTTAGE;Wulpenlaan;10;8430;Middelkerke;1;4;vakanties@aclvb.be;+3292225751;51.17309438228208;2.781037612344325;Koksijde;13.262737459856638
216633;amadeus 0003;HOLIDAY_COTTAGE;Wulpenlaan;10;8430;Middelkerke;1;6;vakanties@aclvb.be;+3292225751;51.17309438228208;2.781037612344325;Koksijde;13.262737459856638
216634;amadeus 0101;HOLIDAY_COTTAGE;Wulpenlaan;10;8430;Middelkerke;1;6;vakanties@aclvb.be;+3292225751;51.17309438228208;2.781037612344325;Koksijde;13.262737459856638
216635;amadeus 0102;HOLIDAY_COTTAGE;Wulpenlaan;10;8430;Middelkerke;1;4;vakanties@aclvb.be;+3292225751;51.17309438228208;2.781037612344325;Koksijde;13.262737459856638
216636;amadeus 0103;HOLIDAY_COTTAGE;Wulpenlaan;10;8430;Middelkerke;1;6;vakanties@aclvb.be;+3292225751;51.17309438228208;2.781037612344325;Koksijde;13.262737459856638
216637;amadeus 0201;HOLIDAY_COTTAGE;Wulpenlaan;10;8430;Middelkerke;1;6;vakanties@aclvb.be;+3292225751;51.17309438228208;2.781037612344325;Koksijde;13.262737459856638
216650;amadeus 0202;HOLIDAY_COTTAGE;Wulpenlaan;10;8430;Middelkerke;1;4;vakanties@aclvb.be;+3292225751;51.17309438228208;2.781037612344325;Koksijde;13.262737459856638
216651;amadeus 0203;HOLIDAY_COTTAGE;Wulpenlaan;10;8430;Middelkerke;1;6;vakanties@aclvb.be;+3292225751;51.17309438228208;2.781037612344325;Koksijde;13.262737459856638
216652;amadeus 0301;HOLIDAY_COTTAGE;Wulpenlaan;10;8430;Middelkerke;1;6;vakanties@aclvb.be;+3292225751;51.17309438228208;2.781037612344325;Koksijde;13.262737459856638
216653;amadeus 0302;HOLIDAY_COTTAGE;Wulpenlaan;10;8430;Middelkerke;1;4;vakanties@aclvb.be;+3292225751;51.17309438228208;2.781037612344325;Koksijde;13.262737459856638
216654;amadeus 0303;HOLIDAY_COTTAGE;Wulpenlaan;10;8430;Middelkerke;1;6;vakanties@aclvb.be;+3292225751;51.17309438228208;2.781037612344325;Koksijde;13.262737459856638
216655;amadeus 0401;HOLIDAY_COTTAGE;Wulpenlaan;10;8430;Middelkerke;1;6;vakanties@aclvb.be;+3292225751;51.17309438228208;2.781037612344325;Koksijde;13.262737459856638
216656;amadeus 0402;HOLIDAY_COTTAGE;Wulpenlaan;10;8430;Middelkerke;1;4;vakanties@aclvb.be;+3292225751;51.17309438228208;2.781037612344325;Koksijde;13.262737459856638
